city,lat,lng,country,population
Tokyo,35.6839,139.7744,Japan,39105000
Jakarta,-6.2146,106.8451,Indonesia,35362000
Delhi,28.6667,77.2167,India,31870000
Manila,14.6,120.9833,Philippines,23971000
São Paulo,-23.5504,-46.6339,Brazil,22495000
Seoul,37.56,126.99,South Korea,22394000
Mumbai,19.0758,72.8775,India,22186000
Shanghai,31.1667,121.4667,China,22118000
Mexico City,19.4333,-99.1333,Mexico,21505000
Guangzhou,23.1288,113.259,China,21489000
Cairo,30.0444,31.2358,Egypt,19787000
Beijing,39.904,116.4075,China,19437000
New York,40.6943,-73.9249,United States,18713220
Kolkāta,22.5727,88.3639,India,18698000
Moscow,55.7558,37.6178,Russia,17693000
Bangkok,13.75,100.5167,Thailand,17573000
Dhaka,23.7289,90.3944,Bangladesh,16839000
Buenos Aires,-34.5997,-58.3819,Argentina,16216000
Ōsaka,34.752,135.4582,Japan,15490000
Lagos,6.45,3.4,Nigeria,15487000
Istanbul,41.01,28.9603,Turkey,15311000
Karachi,24.86,67.01,Pakistan,15292000
Kinshasa,-4.3317,15.3139,Congo (Kinshasa),15056000
Shenzhen,22.535,114.054,China,14678000
Bangalore,12.9791,77.5913,India,13999000
Ho Chi Minh City,10.8167,106.6333,Vietnam,13954000
Tehran,35.7,51.4167,Iran,13819000
Los Angeles,34.1139,-118.4068,United States,12750807
Rio de Janeiro,-22.9083,-43.1964,Brazil,12486000
Chengdu,30.66,104.0633,China,11920000
Baoding,38.8671,115.4845,China,11860000
Chennai,13.0825,80.275,India,11564000
Lahore,31.5497,74.3436,Pakistan,11148000
London,51.5072,-0.1275,United Kingdom,11120000
Paris,48.8566,2.3522,France,11027000
Tianjin,39.1467,117.2056,China,10932000
Linyi,35.0606,118.3425,China,10820000
Shijiazhuang,38.0422,114.5086,China,10784600
Zhengzhou,34.7492,113.6605,China,10136000
Nanyang,32.9987,112.5292,China,10013600
Hyderābād,17.3617,78.4747,India,9840000
Wuhan,30.5872,114.2881,China,9729000
Handan,36.6116,114.4894,China,9549700
Nagoya,35.1167,136.9333,Japan,9522000
Weifang,36.7167,119.1,China,9373000
Lima,-12.06,-77.0375,Peru,8992000
Zhoukou,33.625,114.6418,China,8953172
Luanda,-8.8383,13.2344,Angola,8883000
Ganzhou,25.8292,114.9336,China,8677600
Tongshan,34.261,117.1859,China,8669000
Kuala Lumpur,3.1478,101.6953,Malaysia,8639000
Chicago,41.8373,-87.6862,United States,8604203
Heze,35.2333,115.4333,China,8287693
Chongqing,29.55,106.5069,China,8261000
Hanoi,21.0245,105.8412,Vietnam,8246600
Fuyang,32.8986,115.8045,China,8200264
Changsha,28.1987,112.9709,China,8154700
Dongguan,23.0475,113.7493,China,8142000
Jining,35.4,116.5667,China,8081905
Jinan,36.6667,116.9833,China,7967400
Pune,18.5196,73.8553,India,7948000
Foshan,23.0292,113.1056,China,7905700
Bogotá,4.6126,-74.0705,Colombia,7743955
Nanjing,32.05,118.7667,China,7729000
Ahmedabad,23.03,72.58,India,7717000
Changchun,43.9,125.2,China,7674439
Tangshan,39.6292,118.1742,China,7577289
Cangzhou,38.3037,116.8452,China,7544300
Dar es Salaam,-6.8,39.2833,Tanzania,7461000
Hefei,31.8639,117.2808,China,7457027
Hong Kong,22.3069,114.1831,Hong Kong,7398000
Shaoyang,27.2418,111.4725,China,7370500
Zhanjiang,21.1967,110.4031,China,7332000
Shangqiu,34.4259,115.6467,China,7325300
Nantong,31.9829,120.8873,China,7283622
Yancheng,33.3936,120.1339,China,7260240
Nanning,22.8192,108.315,China,7254100
Hengyang,26.8968,112.5857,China,7243400
Zhumadian,32.9773,114.0253,China,7231234
Shenyang,41.8039,123.4258,China,7208000
Xingtai,37.0659,114.4753,China,7104103
Xi’an,34.2667,108.9,China,7090000
Santiago,-33.45,-70.6667,Chile,7026000
Yantai,37.3997,121.2664,China,6968202
Riyadh,24.65,46.71,Saudi Arabia,6889000
Luoyang,34.6587,112.4245,China,6888500
Kunming,25.0433,102.7061,China,6850000
Shangrao,28.4419,117.9633,China,6810700
Hangzhou,30.25,120.1675,China,6713000
Bijie,27.3019,105.2863,China,6686100
Quanzhou,24.9139,118.5858,China,6480000
Miami,25.7839,-80.2102,United States,6445545
Wuxi,31.5667,120.2833,China,6372624
Huanggang,30.45,114.875,China,6333000
Maoming,21.6618,110.9178,China,6313200
Nanchong,30.7991,106.0784,China,6278614
Zunyi,27.705,106.9336,China,6270700
Qujing,25.5102,103.8029,China,6155400
Xinyang,32.1264,114.0672,China,6109106
Baghdad,33.35,44.4167,Iraq,6107000
Jieyang,23.5533,116.3649,China,6089400
Khartoum,15.6031,32.5265,Sudan,6017000
Madrid,40.4167,-3.7167,Spain,6006000
Allahābād,25.45,81.85,India,5954391
Yulin,22.6293,110.1507,China,5849700
Changde,29.0397,111.6839,China,5827200
Liaocheng,36.45,115.9833,China,5789863
Qingdao,36.1167,120.4,China,5775000
Dallas,32.7936,-96.7662,United States,5743938
Nangandao,35.2992,113.8851,China,5708191
Xiangyang,32.0654,112.1531,China,5680000
Philadelphia,40.0077,-75.1339,United States,5649300
Lu’an,31.7542,116.5078,China,5611701
Giza,29.987,31.2118,Egypt,5598402
Zhaotong,27.3328,103.7144,China,5591000
Yichun,27.8041,114.383,China,5573200
Dezhou,37.4513,116.3105,China,5568235
Nanchang,28.6842,115.8872,China,5545500
Nairobi,-1.2864,36.8172,Kenya,5545000
Tai’an,36.2001,117.0809,China,5494207
Dazhou,31.2152,107.4947,China,5468097
Houston,29.7863,-95.3889,United States,5464251
Yongzhou,26.4515,111.5953,China,5452100
Atlanta,33.7627,-84.4224,United States,5449398
Guadalajara,20.6767,-103.3475,Mexico,5437000
Rangoon,16.795,96.16,Myanmar,5430000
Toronto,43.7417,-79.3733,Canada,5429524
Suihua,46.6384,126.9808,China,5418153
Saint Petersburg,59.95,30.3167,Russia,5384342
Washington,38.9047,-77.0163,United States,5379184
Qiqihar,47.3398,123.9512,China,5367003
Suzhou,33.6333,116.9683,China,5352924
Shantou,23.3735,116.6941,China,5319028
Weinan,34.4996,109.4684,China,5286077
Changzhou,31.8122,119.9692,China,5278121
Singapore,1.3,103.8,Singapore,5271000
Fuzhou,26.0769,119.2917,China,5245000
Pudong,31.2231,121.5397,China,5187200
Belo Horizonte,-19.9281,-43.9419,Brazil,5159000
Zhangzhou,24.5093,117.6612,China,5140000
Yuncheng,35.0304,110.998,China,5134779
Suzhou,31.304,120.6164,China,5103000
Xianyang,34.35,108.7167,China,5096001
Guilin,25.2667,110.2833,China,5085500
Taizhou,32.4831,119.9,China,5031000
Abidjan,5.3364,-4.0267,Côte d'Ivoire,4980000
Huaihua,27.5494,109.9592,China,4979600
Ji’an,27.1172,114.9793,China,4956600
Xiaoganzhan,30.9273,113.911,China,4921000
Pingdingshan,33.735,113.2999,China,4904701
Jiujiang,29.7048,116.0021,China,4896800
Guiyang,26.5794,106.7078,China,4881900
Sūrat,21.17,72.83,India,4875000
Alexandria,31.2,29.9167,Egypt,4870000
Bozhou,33.8626,115.7742,China,4850657
Sydney,-33.865,151.2094,Australia,4840600
Huizhou,23.1115,114.4152,China,4830000
Huai’an,33.5,119.1331,China,4799889
Chenzhou,25.7989,113.0267,China,4744500
Barcelona,41.3825,2.1769,Spain,4735000
Anqing,30.5,117.0333,China,4723000
Suqian,33.9331,118.2831,China,4719178
Boston,42.3188,-71.0846,United States,4688346
Jiangmen,22.5833,113.0833,China,4630300
Mianyang,31.4669,104.7385,China,4613862
Harbin,45.75,126.6333,China,4583000
Huanglongsi,34.7936,114.3403,China,4564900
Zibo,36.7831,118.0497,China,4530597
Melbourne,-37.8136,144.9631,Australia,4529500
Dalian,38.9,121.6,China,4480000
Hengshui,37.7348,115.686,China,4472000
Yibin,28.7596,104.64,China,4471896
Yangzhou,32.3912,119.4363,China,4459760
Timbío,2.3528,-76.6819,Colombia,4444444
Johannesburg,-26.2044,28.0416,South Africa,4434827
Yiyang,28.5833,112.3333,China,4413800
Guigang,23.0961,109.6092,China,4409200
Xinpu,34.5906,119.1801,China,4393482
Meizhou,24.2998,116.1191,China,4378800
Casablanca,33.5992,-7.62,Morocco,4370000
Langfang,39.5196,116.7006,China,4358839
Zhangjiakou,40.8108,114.8811,China,4345485
Chifeng,42.2663,118.9223,China,4341245
Linfen,36.0812,111.5087,China,4316610
Jiangguanchi,34.0244,113.8201,China,4307488
Kabul,34.5328,69.1658,Afghanistan,4273156
Phoenix,33.5722,-112.0891,United States,4219697
Luzhou,28.8918,105.4409,China,4218427
Taiyuan,37.8733,112.5425,China,4201592
Zhaoqing,23.05,112.4667,China,4151700
Xiaoxita,30.7083,111.2803,China,4137900
Xiamen,24.4797,118.0819,China,4110000
Fuzhou,27.9814,116.3577,China,4047200
Liuzhou,24.3264,109.4281,China,4041700
Zhuzhou,27.8407,113.1469,China,4020800
Amman,31.95,35.9333,Jordan,4007526
Jeddah,21.5428,39.1728,Saudi Arabia,3976000
Chuzhou,32.3062,118.3115,China,3937868
Loudi,27.7378,111.9974,China,3931800
Deyang,31.1289,104.395,China,3877000
Qingyuan,23.6842,113.0507,China,3874000
Kano,12,8.5167,Nigeria,3848885
Wuhu,31.334,118.3622,China,3842100
Seattle,47.6211,-122.3244,United States,3789215
Yokohama,35.4333,139.6333,Japan,3757630
Binzhou,37.3806,118.0125,China,3748474
Baojishi,34.3609,107.1751,China,3738700
Zaozhuang,34.8667,117.55,China,3729140
Neijiang,29.5872,105.0635,China,3702847
Baicheng,23.901,106.6194,China,3669400
Berlin,52.5167,13.3833,Germany,3664088
Anshan,41.1066,122.9895,China,3645884
Lanzhou,36.0617,103.8318,China,3616163
Puyang,35.7639,115.03,China,3598740
San Francisco,37.7562,-122.443,United States,3592294
Jiaozuo,35.229,113.2304,China,3590700
Hechi,24.6928,108.085,China,3545700
Montréal,45.5089,-73.5617,Canada,3519595
Detroit,42.3834,-83.1024,United States,3506126
Chengde,40.9739,117.9322,China,3473201
Busan,35.1,129.0403,South Korea,3453198
Hanzhong,33.0794,107.026,China,3416196
Algiers,36.7764,3.0586,Algeria,3415811
Shiyan,32.6351,110.7755,China,3398000
Siping,43.1715,124.3644,China,3385156
Lucknow,26.847,80.947,India,3382000
Yulinshi,38.2655,109.7388,China,3351436
Changzhi,36.1953,113.097,China,3334565
Qinzhou,21.95,108.6167,China,3304400
Bazhou,31.8576,106.7559,China,3283148
Qincheng,34.5809,105.7311,China,3262549
Zhongshan,22.5333,113.35,China,3260000
Suining,30.5098,105.5737,China,3252619
Leshan,29.5854,103.7575,China,3235759
San Diego,32.8312,-117.1225,United States,3220118
Guang’an,30.4673,106.6336,China,3205476
Faisalabad,31.418,73.079,Pakistan,3203846
Tongren,27.7233,109.1885,China,3168800
Bengbu,32.9354,117.3531,China,3164467
Santa Cruz,-17.7892,-63.1975,Bolivia,3151676
Qinhuangdao,39.9398,119.5881,China,3146300
Tongliao,43.6172,122.264,China,3139153
Jinzhou,41.1144,121.1292,China,3126463
Zhenjiang,32.2109,119.4551,China,3113384
Ürümqi,43.8225,87.6125,China,3112559
Heyuan,23.7503,114.6923,China,3093900
Jaipur,26.9167,75.8667,India,3073350
Xinzhou,38.4178,112.7233,China,3067501
Wuzhou,23.4833,111.3167,China,3061100
Chaoyang,41.5757,120.4486,China,3044641
Addis Ababa,9.0272,38.7369,Ethiopia,3041002
Brasília,-15.7939,-47.8828,Brazil,3015268
Mashhad,36.3069,59.6042,Iran,3001184
Shaoguan,24.8011,113.5927,China,2997600
Shanwei,22.7664,115.3331,China,2993600
Kuwait City,29.375,47.98,Kuwait,2989000
Minneapolis,44.9635,-93.2678,United States,2977172
Kyiv,50.45,30.5236,Ukraine,2963199
Quezon City,14.6333,121.0333,Philippines,2960048
Sanaa,15.35,44.2,Yemen,2957000
Meishan,30.0575,103.8381,China,2950545
Guatemala City,14.6099,-90.5252,Guatemala,2934841
Incheon,37.4639,126.6486,South Korea,2913024
Ningde,26.6617,119.5228,China,2910000
Tampa,27.9942,-82.4451,United States,2908063
Daqing,46.5979,125.008,China,2904532
Putian,25.4394,119.0103,China,2900000
Salvador,-12.9708,-38.5108,Brazil,2886698
Surabaya,-7.2458,112.7378,Indonesia,2885555
Denver,39.7621,-104.8759,United States,2876625
Bandung,-6.95,107.5667,Indonesia,2875673
Rome,41.8931,12.4828,Italy,2872800
La Paz,-16.4942,-68.1475,Bolivia,2867504
Hohhot,40.8151,111.6629,China,2866615
Xiangtan,27.8431,112.9228,China,2864800
Pyongyang,39.03,125.73,North Korea,2863000
Weihai,37.5,122.1,China,2804771
Taichung,24.15,120.6667,Taiwan,2803894
Rizhao,35.4164,119.4331,China,2801013
Mudanjiang,44.5861,129.5997,China,2798723
Kaohsiung,22.6167,120.3,Taiwan,2773533
Guayaquil,-2.19,-79.8875,Ecuador,2723665
Tieling,42.2841,123.8365,China,2717732
Cawnpore,26.4725,80.3311,India,2701324
Dingxi,35.5806,104.6263,China,2698624
Nanping,26.6448,118.1728,China,2690000
Taipei,25.0478,121.5319,Taiwan,2684567
Zigong,29.3498,104.7645,China,2678899
Chaozhou,23.67,116.63,China,2656600
Baotou,40.6562,109.8345,China,2650364
Longyan,25.0881,117.0244,China,2640000
Ankang,32.6877,109.0235,China,2629906
Baoshan,25.1211,99.169,China,2627000
Huludao,40.7094,120.8378,China,2623541
Antananarivo,-18.9386,47.5214,Madagascar,2610000
Gulou,26.0819,119.2981,China,2606000
Yanjiang,30.1256,104.6397,China,2593843
Santo Domingo,18.4764,-69.8933,Dominican Republic,2581827
Chattogram,22.335,91.8325,Bangladesh,2581643
Sanming,26.2658,117.6302,China,2580000
Longba,33.535,105.349,China,2567718
Brooklyn,40.6501,-73.9496,United States,2559903
Yangjiang,21.8556,111.9627,China,2555600
Jiamusi,46.8081,130.3653,China,2552097
Ibadan,7.3964,3.9167,Nigeria,2550593
Luohe,33.583,114.0109,China,2544266
Lincang,23.8864,100.0871,China,2536000
Xuanzhou,30.9475,118.7518,China,2532938
Medellín,6.2447,-75.5748,Colombia,2529403
Yunfu,22.9242,112.0353,China,2526900
Dubai,25.2697,55.3094,United Arab Emirates,2502715
Tashkent,41.3,69.2667,Uzbekistan,2497900
Mirzāpur,25.15,82.58,India,2496970
Guangyuan,32.4353,105.8398,China,2484122
Huangshi,30.2018,115.0326,China,2471700
Cali,3.44,-76.5197,Colombia,2471474
Daegu,35.8667,128.6,South Korea,2461002
Ouagadougou,12.3686,-1.5275,Burkina Faso,2453496
Fortaleza,-3.7275,-38.5275,Brazil,2452185
Douala,4.05,9.7,Cameroon,2446945
Dandong,40.1167,124.3833,China,2444697
Yaoundé,3.8578,11.5181,Cameroon,2440462
Yingkou,40.6653,122.2297,China,2428534
Lianshan,40.7523,120.828,China,2426000
Nāgpur,21.1539,79.0831,India,2405665
Jilin,43.8519,126.5481,China,2396000
Omdurman,15.6167,32.48,Sudan,2395159
Yuxi,24.3495,102.5432,China,2386000
Bekasi,-6.2333,107,Indonesia,2381053
Ghāziābād,28.6667,77.4167,India,2375820
Brisbane,-27.4678,153.0281,Australia,2360241
Anshun,26.2456,105.934,China,2353100
Shangzhou,33.868,109.9244,China,2341742
Huainan,32.4831,117.0164,China,2333896
Depok,-6.394,106.8225,Indonesia,2330333
Kuaidamao,41.7302,125.9471,China,2324439
Accra,5.6037,-0.187,Ghana,2291352
Fukuoka,33.6,130.4167,Japan,2280000
Jincheng,35.4906,112.8483,China,2279146
Vancouver,49.25,-123.1,Canada,2264823
Tangerang,-6.1783,106.6319,Indonesia,2237006
Sanmenxia,34.7736,111.195,China,2234018
Laibin,23.7333,109.2333,China,2233900
Queens,40.7498,-73.7976,United States,2230722
Qinbaling,35.7278,107.64,China,2211191
Xining,36.6239,101.7787,China,2208708
Ma’anshan,31.6858,118.5101,China,2202899
Yan’an,36.5952,109.4863,China,2187009
Baku,40.3667,49.8352,Azerbaijan,2181800
Gaoping,30.7824,106.1281,China,2174000
Harare,-17.8292,31.0522,Zimbabwe,2150000
Havana,23.1367,-82.3589,Cuba,2141652
Phnom Penh,11.5696,104.921,Cambodia,2129371
Ningbo,29.875,121.5492,China,2125500
Mogadishu,2.0408,45.3425,Somalia,2120000
Puning,23.2993,116.1586,China,2118200
Huaibei,33.9562,116.789,China,2114276
Qingyang,24.8141,118.5792,China,2111000
Medan,3.6667,98.6667,Indonesia,2109330
Riverside,33.9381,-117.3948,United States,2107852
Baltimore,39.3051,-76.6144,United States,2106068
Las Vegas,36.2333,-115.2654,United States,2104198
Haiphong,20.8,106.6667,Vietnam,2103500
Chongzuo,22.4167,107.3667,China,2099400
Rawalpindi,33.6007,73.0679,Pakistan,2098231
Portland,45.5372,-122.65,United States,2074775
Hezhou,24.4164,111.5478,China,2072600
Kumasi,6.6833,-1.6167,Ghana,2069350
Pingliang,35.5412,106.6819,China,2068033
Vadodara,22.3,73.2,India,2065771
San Antonio,29.4658,-98.5253,United States,2049293
Perth,-31.9522,115.8589,Australia,2039200
Vishākhapatnam,17.7333,83.3167,India,2035922
Shengli,37.45,118.4667,China,2035338
Baicheng,45.6148,122.832,China,2032356
Gujranwala,32.15,74.1833,Pakistan,2027001
St. Louis,38.6358,-90.2451,United States,2024074
Fushun,41.8708,123.8917,China,2024000
Quito,-0.22,-78.5125,Ecuador,2011388
Minsk,53.9022,27.5618,Belarus,2009786
Bamako,12.6458,-7.9922,Mali,2009109
Indore,22.7206,75.8472,India,1994397
Yinchuan,38.4795,106.2254,China,1993088
Kananga,-5.8961,22.4167,Congo (Kinshasa),1971704
Peshawar,34,71.5,Pakistan,1970042
Sapporo,43.0621,141.3544,Japan,1961690
Eşfahān,32.6447,51.6675,Iran,1961260
Caracas,10.5,-66.9333,Venezuela,1943901
Pingxiang,27.6333,113.85,China,1933200
Tijuana,32.525,-117.0333,Mexico,1922523
Almaty,43.25,76.9,Kazakhstan,1916822
Aleppo,36.2,37.15,Syria,1916781
Vienna,48.2083,16.3725,Austria,1911191
Sacramento,38.5667,-121.4683,United States,1898019
Blantyre,-15.7861,35.0058,Malawi,1895973
Zhuhai,22.2769,113.5678,China,1891100
Thāne,19.18,72.9633,India,1886941
Tainan,22.9833,120.1833,Taiwan,1883831
Bucharest,44.4,26.0833,Romania,1883425
Curitiba,-25.4297,-49.2719,Brazil,1879355
Xiping,40.082,113.2981,China,1873000
Multan,30.1978,71.4711,Pakistan,1871843
Jixi,45.2937,130.965,China,1862165
Saidu Sharif,34.75,72.3572,Pakistan,1860310
Liaoyang,41.2643,123.1772,China,1858768
Ecatepec,19.6097,-99.06,Mexico,1857188
Hamburg,53.55,10,Germany,1852478
Meru,0.05,37.65,Kenya,1833000
Brazzaville,-4.2667,15.2833,Congo (Brazzaville),1827000
Orlando,28.4772,-81.3369,United States,1822394
Fuxin,42.0127,121.6486,China,1819339
Wuwei,37.9278,102.6329,China,1815059
Manaus,-3.1,-60.0167,Brazil,1802014
Bhopāl,23.25,77.4167,India,1798218
San Jose,37.3019,-121.8486,United States,1798103
Warsaw,52.23,21.0111,Poland,1790658
Lubumbashi,-11.6697,27.4581,Congo (Kinshasa),1786397
Davao,7.0667,125.6,Philippines,1776949
Haikou,20.02,110.32,China,1776141
Shuyangzha,34.1299,118.7734,China,1770000
Damascus,33.5131,36.2919,Syria,1754000
Brussels,50.8353,4.3314,Belgium,1743000
Lusaka,-15.4167,28.2833,Zambia,1742979
Hyderabad City,25.3792,68.3683,Pakistan,1732693
Budapest,47.4983,19.0408,Hungary,1723836
Shuozhou,39.3408,112.4292,China,1714857
Cleveland,41.4767,-81.6804,United States,1710093
Benxi,41.292,123.761,China,1709538
Baiyin,36.5448,104.1766,China,1708751
Pittsburgh,40.4396,-79.9762,United States,1703266
Mosul,36.3667,43.1167,Iraq,1694000
Austin,30.3004,-97.7522,United States,1687311
Patna,25.61,85.1414,India,1684222
Sanzhou,30.82,108.4,China,1680000
Beihai,21.4667,109.1,China,1680000
Mecca,21.4225,39.8261,Saudi Arabia,1675368
Heihe,50.2458,127.4886,China,1673899
Jingdezhen,29.2942,117.2036,China,1673200
Conakry,9.538,-13.6773,Guinea,1667864
Cincinnati,39.1413,-84.5061,United States,1662691
Caloocan City,14.65,120.9667,Philippines,1661584
Kampala,0.3136,32.5811,Uganda,1659600
Recife,-8.0539,-34.8808,Brazil,1653461
Yushan,31.3867,120.9766,China,1651200
Kansas City,39.1239,-94.5541,United States,1636715
Zhongli,24.965,121.2168,Taiwan,1632616
Manhattan,40.7834,-73.9662,United States,1628706
Bilāspur,22.15,82.0167,India,1625502
Semarang,-6.9667,110.4167,Indonesia,1621384
Ludhiāna,30.9083,75.8486,India,1618879
Chengtangcun,35.0833,117.15,China,1603659
Novosibirsk,55.0333,82.9167,Russia,1602915
Karaj,35.8327,50.9915,Iran,1592492
Āgra,27.1724,78.0131,India,1592000
Indianapolis,39.7771,-86.1458,United States,1588961
Wenzhou,27.9991,120.6561,China,1588700
León de los Aldama,21.1167,-101.6833,Mexico,1579803
Kalyān,19.2502,73.1602,India,1576614
Puebla,19.0333,-98.1833,Mexico,1576259
Hebi,35.7497,114.2887,China,1569208
Shīrāz,29.61,52.5425,Iran,1565572
Columbus,39.9862,-82.985,United States,1562009
Madurai,9.9197,78.1194,India,1561129
Mbuji-Mayi,-6.1209,23.5967,Congo (Kinshasa),1559073
Tabrīz,38.0833,46.2833,Iran,1558693
Jamshedpur,22.8,86.1833,India,1558000
Maracaibo,10.6333,-71.6333,Venezuela,1551539
Kawasaki,35.5167,139.7,Japan,1539522
Zhangjiajie,29.1255,110.4844,China,1537900
Palembang,-2.9833,104.7644,Indonesia,1535952
Aba,5.1167,7.3667,Nigeria,1530000
Kōbe,34.6913,135.183,Japan,1513193
Charlotte,35.208,-80.8304,United States,1512923
Changshu,31.65,120.7333,China,1510100
Lianjiang,21.6146,110.2794,China,1509400
Ximeicun,24.9633,118.3811,China,1508000
Jianguang,28.1958,115.7833,China,1507402
Yucheng,29.9888,103.0007,China,1507258
Belém,-1.4558,-48.5039,Brazil,1499641
Guiping,23.4,110.0833,China,1496904
Leizhou,20.9147,110.0806,China,1494700
Gwangju,35.1667,126.9167,South Korea,1490092
Munich,48.1375,11.575,Germany,1488202
Nāsik,20,73.7833,India,1486053
Porto Alegre,-30.0328,-51.23,Brazil,1484941
Valencia,10.1667,-68,Venezuela,1484430
Onitsha,6.1667,6.7833,Nigeria,1483000
Abu Dhabi,24.4511,54.3969,United Arab Emirates,1483000
Virginia Beach,36.7335,-76.0435,United States,1478868
Zapopan,20.7167,-103.4,Mexico,1476491
Daejeon,36.351,127.385,South Korea,1475221
Yekaterinburg,56.8356,60.6128,Russia,1468833
Huazhou,32.6832,112.079,China,1468061
Kyōto,35.0117,135.7683,Japan,1464890
Shuangyashan,46.6388,131.1545,China,1462626
Pizhou,34.3422,118.0097,China,1458038
El Kelaa des Srarhna,32.05,-7.4,Morocco,1450021
Kharkiv,50,36.2292,Ukraine,1446107
Yangshe,31.8775,120.5512,China,1432044
Guyuan,36.008,106.2782,China,1426000
Muscat,23.6139,58.5922,Oman,1421409
Bronx,40.8501,-73.8662,United States,1418207
Gaozhou,21.9135,110.8481,China,1414100
Chizhou,30.6583,117.4849,China,1402518
Khulna,22.8167,89.55,Bangladesh,1400689
Ulaanbaatar,47.9214,106.9055,Mongolia,1396288
Farīdābād,28.4353,77.3147,India,1394000
Goiânia,-16.6806,-49.2564,Brazil,1393575
Fuqing,25.7232,119.3735,China,1390487
Pingdu,36.7833,119.9556,China,1378900
Belgrade,44.8167,20.4667,Serbia,1378682
Aurangābād,19.88,75.32,India,1371330
Yutan,28.3147,112.554,China,1368117
Milan,45.4669,9.19,Italy,1366180
Milwaukee,43.0642,-87.9673,United States,1365787
Huangshan,29.7132,118.3151,China,1358980
Auckland,-36.85,174.7833,New Zealand,1346091
Santiago,19.45,-70.7,Dominican Republic,1343423
Makassar,-5.1331,119.4136,Indonesia,1338663
Liangshi,27.2578,111.7351,China,1335900
Rājkot,22.2969,70.7984,India,1335397
Prague,50.0833,14.4167,Czechia,1335084
Córdoba,-31.4167,-64.1833,Argentina,1329604
Al Başrah,30.515,47.81,Iraq,1326564
Guarulhos,-23.4667,-46.5333,Brazil,1324781
Juárez,31.7386,-106.487,Mexico,1321004
Saitama,35.8617,139.6453,Japan,1320571
Montevideo,-34.8667,-56.1667,Uruguay,1319108
Xintai,35.91,117.78,China,1315942
Wusong,30.9333,117.7667,China,1311726
Meerut,28.99,77.7,India,1305429
Yushu,44.8249,126.5451,China,1304436
Rongcheng,26.2312,104.0966,China,1302891
Huazhou,21.654,110.6294,China,1302100
Yangquan,37.8576,113.5762,China,1300000
Baishan,41.9377,126.4179,China,1296127
Dayan,26.8808,100.2208,China,1296000
Adelaide,-34.9275,138.6,Australia,1295714
Haicheng,40.8523,122.7474,China,1293877
Jiangyin,31.9087,120.2653,China,1285785
Wuzhong,37.9874,106.1919,China,1284000
Cacuaco,-8.7833,13.3667,Angola,1279488
Sofia,42.6979,23.3217,Bulgaria,1277411
Barranquilla,10.9639,-74.7964,Colombia,1274250
Soweto,-26.2678,27.8586,South Africa,1271628
Jabalpur,23.1667,79.9333,India,1267564
Rucheng,32.3852,120.5634,China,1267066
Nizhniy Novgorod,56.3269,44.0075,Russia,1264075
Huaiyin,33.5819,119.028,China,1264000
Shaoyang,32.9387,119.8404,China,1253548
Comayagüela,14.0833,-87.2167,Honduras,1250000
Laiwu,36.1833,117.6667,China,1248636
Sharjah,25.3575,55.3919,United Arab Emirates,1247749
Jingling,30.6667,113.1667,China,1247400
Dhanbād,23.7928,86.435,India,1246000
Kazan,55.7908,49.1144,Russia,1243500
Yongcheng,33.9317,116.4459,China,1240382
Calgary,51.05,-114.0667,Canada,1239220
Cần Thơ,10.0333,105.7833,Vietnam,1237300
Abuja,9.0556,7.4914,Nigeria,1235880
Suwon,37.2858,127.01,South Korea,1234300
Mandalay,21.9831,96.0844,Myanmar,1225546
Beidao,34.602,105.918,China,1225000
Xiangshui,26.5964,104.8314,China,1221000
Dadukou,26.5849,101.7149,China,1214121
Vila Velha,3.2167,-51.2167,Brazil,1209091
Providence,41.823,-71.4187,United States,1203230
Chelyabinsk,55.15,61.4,Russia,1202371
Qom,34.64,50.8764,Iran,1201158
Mombasa,-4.05,39.6667,Kenya,1200000
Zhangye,38.9355,100.4553,China,1199515
Vārānasi,25.3189,83.0128,India,1198491
Hiroshima,34.4,132.45,Japan,1198021
Maiduguri,11.8333,13.15,Nigeria,1197497
Rosario,-32.9575,-60.6394,Argentina,1193605
Maputo,-25.9153,32.5764,Mozambique,1191613
Xinyu,27.795,114.9242,China,1186700
Doha,25.3,51.5333,Qatar,1186023
Ahvāz,31.3203,48.6692,Iran,1184788
Jacksonville,30.3322,-81.6749,United States,1181496
Medina,24.4667,39.6,Saudi Arabia,1180770
Srīnagar,34.0911,74.8061,India,1180570
Omsk,54.9667,73.3833,Russia,1178391
Liaoyuan,42.8976,125.1381,China,1176239
Yingtan,28.2333,117,China,1175000
Cilacap,-7.7167,109.017,Indonesia,1174964
Pikine,14.75,-17.4,Senegal,1170791
Samara,53.1833,50.1167,Russia,1169719
Guankou,28.2363,113.6984,China,1168056
Bandar Lampung,-5.4294,105.2625,Indonesia,1166761
Ulsan,35.55,129.3167,South Korea,1166033
Dingzhou,38.5158,114.9845,China,1165182
Campinas,-22.9009,-47.0573,Brazil,1164098
Lianyuan,27.6961,111.6659,China,1162928
Rongcheng,29.8239,112.9019,China,1162770
Nay Pyi Taw,19.7475,96.115,Myanmar,1160242
Kaiyuan,36.0656,113.8153,China,1160000
Kigali,-1.9536,30.0606,Rwanda,1156663
Leiyang,26.4179,112.8457,China,1151554
Yichun,47.7235,128.8893,China,1148126
Benin City,6.3176,5.6145,Nigeria,1147188
Dakar,14.7319,-17.4572,Senegal,1146053
Xiantao,30.3833,113.4,China,1140100
Birmingham,52.48,-1.9025,United Kingdom,1137100
Monterrey,25.6667,-100.3,Mexico,1135512
Amritsar,31.6269,74.877,India,1132383
Yingchuan,34.1511,113.4733,China,1131896
Alīgarh,27.88,78.08,India,1131160
Callao,-12.0611,-77.1333,Peru,1129854
Nampo,38.7689,125.4505,North Korea,1127000
Tegucigalpa,14.0942,-87.2067,Honduras,1126534
Tripoli,32.8752,13.1875,Libya,1126000
Rostov,47.2333,39.7167,Russia,1125299
Tbilisi,41.7225,44.7925,Georgia,1118035
Guwāhāti,26.1722,91.7458,India,1116267
Ufa,54.7261,55.9475,Russia,1115560
Fès,34.0433,-5.0033,Morocco,1112072
Ciudad Nezahualcóyotl,19.41,-99.03,Mexico,1109363
Biên Hòa,10.9508,106.8221,Vietnam,1104000
Ikare,7.5304,5.76,Nigeria,1099931
Salt Lake City,40.7777,-111.9306,United States,1098526
Bhilai,21.2186,81.4314,India,1097000
Xibeijie,39.737,98.5049,China,1095947
Tamale,9.4075,-0.8533,Ghana,1095808
Hanchuan,30.652,113.8274,China,1092700
Gongzhuling,43.5036,124.8088,China,1092692
N’Djamena,12.11,15.05,Chad,1092066
Copenhagen,55.6805,12.5615,Denmark,1085000
Krasnoyarsk,56.0089,92.8719,Russia,1083865
Cologne,50.9422,6.9578,Germany,1083498
Yicheng,31.3697,119.8239,China,1082929
Zhufeng,36,119.4167,China,1081960
Nashville,36.1715,-86.7843,United States,1081903
Nur-Sultan,51.1333,71.4333,Kazakhstan,1078362
São Gonçalo,-22.8269,-43.0539,Brazil,1077687
Nezahualcóyotl,19.4,-98.9889,Mexico,1077208
Nouakchott,18.0858,-15.9785,Mauritania,1077169
Hāora,22.5736,88.3251,India,1077075
Yerevan,40.1814,44.5144,Armenia,1075800
Richmond,37.5295,-77.4756,United States,1075798
Vereeniging,-26.6736,27.9319,South Africa,1074000
Taixing,32.1724,120.0142,China,1073921
São Luís,-2.53,-44.3028,Brazil,1073893
San Pedro Sula,15.5,-88.0333,Honduras,1073824
Rānchi,23.3556,85.3347,India,1073440
Gwalior,26.215,78.1931,India,1069276
Memphis,35.1046,-89.9773,United States,1066967
Edmonton,53.5344,-113.4903,Canada,1062643
Goyang,37.6564,126.835,South Korea,1061929
Mizhou,35.99,119.3801,China,1060000
Xishan,27.6609,113.4946,China,1060000
Ezhou,30.3972,114.8842,China,1059700
Barquisimeto,10.0678,-69.3467,Venezuela,1059092
Hegang,47.3139,130.2775,China,1058665
Sendai,38.2683,140.8694,Japan,1058070
Tunis,36.8008,10.18,Tunisia,1056247
Bishkek,42.8667,74.5667,Kyrgyzstan,1053900
Mexicali,32.6633,-115.4678,Mexico,1049792
Bezwāda,16.5167,80.6167,India,1048240
Perm,58.0139,56.2489,Russia,1048005
Voronezh,51.6717,39.2106,Russia,1047549
Changwon,35.2281,128.6811,South Korea,1046054
Zhongwei,37.5139,105.1884,China,1046000
Shouguang,36.8833,118.7333,China,1039205
Raleigh,35.8325,-78.6435,United States,1038738
Cartagena,10.4236,-75.5253,Colombia,1036412
Jodhpur,26.2944,73.0278,India,1033918
Matola,-25.9667,32.4667,Mozambique,1032197
Ogbomoso,8.1333,4.25,Nigeria,1032000
Bogor,-6.5917,106.8,Indonesia,1030720
Taizhou,28.6583,121.4221,China,1030200
Bagam,1.0678,104.0167,Indonesia,1029808
Managua,12.15,-86.2667,Nicaragua,1028808
Shymkent,42.3,69.6,Kazakhstan,1028673
Niamey,13.5086,2.1111,Niger,1026848
Chandīgarh,30.7353,76.7911,India,1026459
Shubrā al Khaymah,30.1286,31.2422,Egypt,1025569
Maceió,-9.6658,-35.735,Brazil,1025360
Wafangdian,39.6271,121.9972,China,1024876
Zhongxiang,31.169,112.5853,China,1022514
Monrovia,6.3106,-10.8047,Liberia,1021762
New Orleans,30.0687,-89.9288,United States,1020886
Odesa,46.4775,30.7326,Ukraine,1017699
Volgograd,48.7086,44.5147,Russia,1015586
Islamabad,33.6989,73.0369,Pakistan,1014825
Mysore,12.3086,76.6531,India,1014227
Xinyi,22.3559,110.9369,China,1013900
Thủ Đức,10.7924,106.7518,Vietnam,1013795
Villahermosa,17.9892,-92.9281,Mexico,1013484
Raipur,21.2379,81.6337,India,1010087
Arequipa,-16.3988,-71.5369,Peru,1008290
Port Harcourt,4.75,7,Nigeria,1005904
Louisville,38.1663,-85.6485,United States,1005654
Zaoyang,32.1287,112.7581,China,1004741
Xingyi,25.091,104.9011,China,1004132
Shuizhai,33.4433,114.8994,China,1003698
Kota,25.18,75.83,India,1001694
Quetta,30.192,67.007,Pakistan,1001205
Bareilly,28.364,79.415,India,1000000
Quảng Hà,16.06,108.25,Vietnam,1000000
Xingcheng,24.1681,115.6669,China,993000
Dongtai,32.8534,120.3037,China,990306
Ottawa,45.4247,-75.695,Canada,989567
Port-au-Prince,18.5425,-72.3386,Haiti,987310
Yingcheng,24.1878,113.4042,China,986400
Luocheng,22.7645,111.5745,China,984100
Pekanbaru,0.5333,101.45,Indonesia,983356
Chiba,35.6073,140.1064,Japan,981738
Dnipro,48.4675,35.04,Ukraine,980948
Danyang,31.9948,119.575,China,980662
Natal,-6.9838,-60.2699,Brazil,980588
Nada,19.5,109.5833,China,977700
Zamboanga City,6.9167,122.0833,Philippines,977234
Stockholm,59.3294,18.0686,Sweden,975819
Kathmandu,27.7167,85.3667,Nepal,975453
Kirkuk,35.4667,44.4,Iraq,975000
Oklahoma City,35.4676,-97.5136,United States,972943
Huilong,31.8131,121.6574,China,972525
Wuchuan,21.4283,110.7749,China,972400
Naples,40.8333,14.25,Italy,966144
Cebu City,10.293,123.902,Philippines,964169
Asmara,15.3333,38.9167,Eritrea,963000
Morelia,19.7683,-101.1894,Mexico,962555
Shaoxing,30,120.5833,China,961200
Al Manşūrah,31.05,31.3833,Egypt,960423
Coimbatore,11,76.9667,India,959823
Taishan,22.2486,112.785,China,953900
Fangchenggang,21.6,108.3,China,953300
Solāpur,17.6715,75.9104,India,951558
Freetown,8.4833,-13.2331,Sierra Leone,951000
Santo Domingo Este,18.4855,-69.8734,Dominican Republic,948855
Sŏngnam,37.4386,127.1378,South Korea,948757
Vientiane,17.9667,102.6,Laos,948487
Tangier,35.7767,-5.8039,Morocco,947952
Anqiu,36.3619,119.1072,China,947723
Feicheng,36.186,116.772,China,946627
Kermānshāh,34.3167,47.0686,Iran,945651
Setagaya,35.6464,139.6533,Japan,940509
Khartoum North,15.6333,32.6333,Sudan,936349
Meishan,34.1736,112.839,China,936000
Kisangani,0.5153,25.1911,Congo (Kinshasa),935977
Kitakyūshū,33.8833,130.8833,Japan,935084
Aguascalientes,21.876,-102.296,Mexico,934424
Donetsk,48.0089,37.8042,Ukraine,929063
Marrakech,31.6295,-7.9811,Morocco,928850
Taihe,30.8706,105.3784,China,924531
Bridgeport,41.1918,-73.1953,United States,924449
Xin’an,34.3662,118.3369,China,920628
Taihecun,45.768,131.0063,China,920471
Trujillo,-8.1119,-79.0289,Peru,919899
Jerusalem,31.7833,35.2167,Israel,919438
Trichinopoly,10.8269,78.6928,India,916857
Padang,-0.9556,100.3606,Indonesia,914970
Buffalo,42.9016,-78.8487,United States,914341
Qingzhou,36.6967,118.4797,China,914047
Lichuan,30.2965,108.9378,China,913700
Naucalpan de Juárez,19.4753,-99.2378,Mexico,913681
Daye,30.1003,114.9699,China,909724
Fort Worth,32.7811,-97.3473,United States,909585
Hengzhou,22.6896,109.2674,China,908400
Owerri,5.4833,7.0333,Nigeria,908109
Campo Grande,-20.4686,-54.6222,Brazil,906092
Zhuanghe,39.6896,122.9664,China,905852
Hartford,41.7661,-72.6834,United States,905152
Bobo-Dioulasso,11.1833,-4.2833,Burkina Faso,903887
Ad Dammām,26.4333,50.1,Saudi Arabia,903312
Lhasa,29.6458,91.1408,China,902500
Jiaozhou,36.2481,119.9625,China,900500
Mérida,20.97,-89.62,Mexico,892363
Yangchun,22.1717,111.7846,China,891800
Hubli,15.3619,75.1231,India,890000
Bangui,4.3732,18.5628,Central African Republic,889231
Abeokuta,7.15,3.35,Nigeria,888924
Cancún,21.1606,-86.8475,Mexico,888797
Tucson,32.1545,-110.8782,United States,888486
Antipolo,14.5842,121.1763,Philippines,887399
Dengtalu,36.0819,114.3481,China,887000
Taguig City,14.5167,121.05,Philippines,886722
Krasnodar,45.0333,38.9833,Russia,881476
Panama City,9,-79.5,Panama,880691
Chihuahua,28.6353,-106.0889,Mexico,878062
Klang,3.0333,101.45,Malaysia,878000
Natal,-5.795,-35.2089,Brazil,877662
Ar Ramādī,33.4258,43.2992,Iraq,874543
Laiyang,36.9758,120.7136,China,874127
Jalandhar,31.3256,75.5792,India,873725
Kaifeng Chengguanzhen,34.8519,114.3481,China,872000
Turin,45.0667,7.7,Italy,870952
Gaomi,36.3833,119.75,China,868715
Marseille,43.2964,5.37,France,868277
Bucheon,37.4989,126.7831,South Korea,867678
Ipoh,4.6,101.07,Malaysia,866772
Hai’an,32.532,120.4604,China,866337
Malang,-7.98,112.62,Indonesia,866118
Saltillo,25.4333,-101,Mexico,864431
Amsterdam,52.3667,4.8833,Netherlands,862965
Ikeja,6.6186,3.3426,Nigeria,861300
Weichanglu,37.1792,119.9333,China,859424
Hermosillo,29.0989,-110.9542,Mexico,855563
Leping,28.9632,117.1203,China,852800
Oran,35.6969,-0.6331,Algeria,852000
Shache,38.4261,77.25,China,851374
Sale,34.05,-6.8167,Morocco,850403
Hailun,47.4585,126.9632,China,850000
Macheng,31.1817,115.0189,China,849090
Akure,7.25,5.195,Nigeria,847903
Omaha,41.2627,-96.0522,United States,847819
Ilorin,8.5,4.55,Nigeria,847582
Teresina,-5.0949,-42.8042,Brazil,847430
Erbil,36.1911,44.0094,Iraq,846000
Saratov,51.5333,46,Russia,845300
Iguaçu,-22.74,-43.47,Brazil,844583
El Paso,31.8479,-106.4309,United States,843386
Yuci,37.6823,112.7281,China,840000
Dehui,44.5323,125.6965,China,839786
Bhubaneshwar,20.2644,85.8281,India,837737
Lomé,6.1319,1.2228,Togo,837437
Denpasar,-8.6667,115.2167,Indonesia,834881
Tongchuan,34.9057,108.9422,China,834437
Cheongju,36.6372,127.4897,South Korea,833276
Warri,5.5167,5.75,Nigeria,830106
Pointe-Noire,-4.7889,11.8653,Congo (Brazzaville),829134
Rongjiawan,29.1409,113.1087,China,826000
Sakai,34.5667,135.4833,Japan,823523
Renqiu,38.7094,116.1008,China,822455
Butterworth,5.3992,100.3639,Malaysia,821652
Honolulu,21.3294,-157.846,United States,820987
Xindi,29.8182,113.4653,China,819446
Wu’an,36.6941,114.1847,China,819000
São Bernardo do Campo,-23.6939,-46.565,Brazil,816925
Gaoyou,32.7847,119.4432,China,811800
Yiyang,26.4103,112.3913,China,810447
Hejian,38.4451,116.0897,China,810306
Puxi,35.2125,114.735,China,809535
Culiacán,24.8069,-107.3939,Mexico,808416
Zijinglu,34.7513,112.9854,China,807857
McAllen,26.2273,-98.2471,United States,804114
Pasig City,14.575,121.0833,Philippines,803159
Querétaro,20.5875,-100.3928,Mexico,801940
João Pessoa,-7.12,-34.88,Brazil,801718
Abaeté,-19.1583,-45.4522,Brazil,800000
Palermo,2.8883,-75.4339,Colombia,800000
Qingping,34.538,113.3796,China,797200
Libreville,0.3901,9.4544,Gabon,797003
Niigata,37.9161,139.0364,Japan,790646
Zagreb,45.8131,15.9772,Croatia,790017
Valencia,39.47,-0.3764,Spain,789744
Leeds,53.7997,-1.5492,United Kingdom,789194
Hamamatsu,34.7167,137.7333,Japan,788211
Xiangxiang,27.7389,112.5223,China,787216
Morādābād,28.8437,78.7548,India,787000
Chaohucun,31.6783,117.7353,China,782000
Lilongwe,-13.9833,33.7833,Malawi,781538
Dushanbe,38.5731,68.7864,Tajikistan,778500
Lubango,-14.9167,13.5,Angola,776249
Homs,34.7333,36.7167,Syria,775404
San Luis Potosí,22.1511,-100.9761,Mexico,772828
Cencheng,22.9297,111.0186,China,772113
Dali,25.7003,100.1564,China,771128
Fuyang,30.0553,119.95,China,771000
Hamhŭng,39.9167,127.5333,North Korea,768551
Hempstead,40.6629,-73.6089,United States,767417
Al ‘Ayn,24.2075,55.7447,United Arab Emirates,766936
Kraków,50.0614,19.9372,Poland,766739
Songzi,30.1772,111.7732,China,765911
Frankfurt,50.1136,8.6797,Germany,764104
Laixi,36.8667,120.5333,China,762900
Zhongba,31.7761,104.7406,China,762140
Bahawalpur,29.3956,71.6722,Pakistan,762111
Cotonou,6.402,2.518,Benin,762000
Albuquerque,35.1053,-106.6464,United States,761195
Qingnian,36.8494,115.7061,China,760781
Kaduna,10.5105,7.4165,Nigeria,760084
Xinhualu,34.3962,113.7249,China,758079
Guangshui,31.6189,113.8229,China,755910
Samarinda,-0.5022,117.1536,Indonesia,753370
Colombo,6.9167,79.8333,Sri Lanka,752993
Sizhan,39.0099,106.3694,China,751389
Ciudad Guayana,8.3596,-62.6517,Venezuela,751331
Pietermaritzburg,-29.6009,30.3796,South Africa,750845
Changhua,24.0667,120.5333,Taiwan,750000
Kolhāpur,16.7,74.2333,India,750000
Cúcuta,7.9075,-72.5047,Colombia,750000
Licheng,31.4174,119.4786,China,749522
Tyumen,57.15,65.5333,Russia,744554
Thiruvananthapuram,8.5,76.8997,India,743691
Nampula,-15.1167,39.2667,Mozambique,743000
Nerima,35.75,139.6167,Japan,742463
Zaporizhzhia,47.8378,35.1383,Ukraine,741717
Pretoria,-25.7464,28.1881,South Africa,741651
Chengguan,35.5256,113.6976,China,740435
Nehe,48.48,124.8738,China,740000
Birmingham,33.5277,-86.7987,United States,739573
Kumamoto,32.8031,130.7078,Japan,738385
Ōta-ku,35.5614,139.7161,Japan,737187
Zunhua,40.1881,117.9593,China,737011
Orūmīyeh,37.5486,45.0675,Iran,736224
Wugang,26.7345,110.6293,China,734870
Shuangqiao,35.0833,112.5833,China,733000
Osogbo,7.7597,4.5761,Nigeria,731000
Comodoro Rivadavia,-45.8667,-67.5,Argentina,730266
Langzhong,31.5504,105.9938,China,728935
Cagayan de Oro,8.4833,124.65,Philippines,728402
Qian’an,40.0059,118.6973,China,728160
Tlajomulco de Zúñiga,20.4736,-103.4431,Mexico,727750
Zouping,36.8625,117.7424,China,726722
An Najaf,32.029,44.3396,Iraq,724700
Lviv,49.8419,24.0315,Ukraine,724314
Sagamihara,35.5667,139.3667,Japan,722973
Sarasota,27.3386,-82.5431,United States,722243
Mississauga,43.6,-79.65,Canada,721599
Okayama,34.65,133.9167,Japan,720043
Anlu,31.2575,113.6783,China,720000
Dayton,39.7797,-84.1998,United States,718353
Changsha,22.3762,112.6877,China,717700
Shihezi,44.3,86.0333,China,717000
Torreón,25.5394,-103.4486,Mexico,716672
Enugu,6.4403,7.4942,Nigeria,715774
Valenzuela,14.7,120.9833,Philippines,714978
Yatou,37.1653,122.4867,China,714211
Yanggok,37.6367,127.2142,South Korea,713321
Xichang,27.8983,102.2706,China,712434
Santo André,-23.6572,-46.5333,Brazil,710210
Bhiwandi,19.3,73.0667,India,709665
Chengxiang,31.4515,121.1043,China,709500
George Town,5.4145,100.3292,Malaysia,708127
Sahāranpur,29.964,77.546,India,705478
Winnipeg,49.8844,-97.1464,Canada,705244
Quebec City,46.8139,-71.2081,Canada,705103
Dashiqiao,40.6328,122.5021,China,704891
Warangal,17.9756,79.6011,India,704570
Rochester,43.168,-77.6162,United States,703952
Fresno,36.7831,-119.7941,United States,703498
Dasmariñas,14.3294,120.9367,Philippines,703141
Jaboatão,-8.1803,-35.0014,Brazil,702621
Latakia,35.5236,35.7917,Syria,700000
Soledad,10.92,-74.77,Colombia,698852
General Santos,6.1167,125.1667,Philippines,697315
Ḩamāh,35.1333,36.75,Syria,696863
Qianxi,27.0284,106.0327,China,695947
Osasco,-23.5328,-46.7919,Brazil,694844
Bauchi,10.3158,9.8442,Nigeria,693700
Hamilton,43.2567,-79.8692,Canada,693645
Oslo,59.9111,10.7528,Norway,693494
Salem,11.65,78.1667,India,693236
Tolyatti,53.5167,49.4167,Russia,693072
Shishi,24.7355,118.6434,China,693000
Banjarmasin,-3.319,114.5921,Indonesia,692793
Miluo Chengguanzhen,28.8049,113.0745,China,692080
Guadalupe,25.6775,-100.2597,Mexico,691931
Gaizhou,40.4019,122.3499,China,691595
Mālegaon,20.55,74.55,India,690844
Edogawa,35.6924,139.8757,Japan,690457
Łódź,51.7769,19.4547,Poland,690422
Karbalā’,32.6167,44.0333,Iraq,690100
City of Parañaque,14.4667,121.0167,Philippines,689992
Leling,37.7333,117.2167,China,689867
São José dos Campos,-23.1789,-45.8869,Brazil,688597
Jianshe,34.2189,113.7693,China,687130
Shizuoka,34.9756,138.3825,Japan,685589
Jingcheng,32.0058,120.2547,China,684360
Sevilla,37.39,-5.99,Spain,684234
Allentown,40.5961,-75.4756,United States,683794
Adachi,35.7833,139.8,Japan,682326
Xinmin,41.9952,122.8224,China,680000
Rasht,37.2833,49.6,Iran,679995
Xigazê,29.2649,88.8799,China,679771
Zhongshu,27.8116,106.4133,China,679624
Tasikmalaya,-7.3333,108.2,Indonesia,678027
Kochi,9.9667,76.2833,India,677381
As Sulaymānīyah,35.55,45.4333,Iraq,676500
Zaragoza,41.65,-0.8833,Spain,675301
Acapulco de Juárez,16.8636,-99.8825,Mexico,673478
Gorakhpur,26.7611,83.3667,India,673446
Bahār,34.9069,48.4414,Iran,673405
Guankou,30.9933,103.624,China,671200
Tulsa,36.1284,-95.9042,United States,671033
Songyang,34.4603,113.028,China,668592
Palermo,38.1111,13.3517,Italy,668405
Cape Coral,26.6446,-81.9956,United States,668382
Ch’ŏngjin,41.8,129.7831,North Korea,667929
Qionghu,28.8417,112.3595,China,667104
Zhaodong,46.0635,125.9773,China,666532
Ribeirão Prêto,-21.1783,-47.8067,Brazil,666323
Puyang Chengguanzhen,35.7004,114.98,China,666322
Huambo,-12.7667,15.7333,Angola,665564
Bacoor,14.4624,120.9645,Philippines,664625
Wenchang,31.054,116.9507,China,664455
Tlaquepaque,20.6167,-103.3167,Mexico,664193
Athens,37.9842,23.7281,Greece,664046
Shulan,44.4079,126.9429,China,663403
Catia La Mar,10.6038,-67.0303,Venezuela,661897
Al Hufūf,25.3608,49.5997,Saudi Arabia,660788
Jalingo,8.9195,11.3264,Nigeria,660213
Sargodha,32.0836,72.6711,Pakistan,659862
Bouaké,7.6833,-5.0331,Côte d'Ivoire,659233
Bujumbura,-3.3825,29.3611,Burundi,658859
Mazatlán,23.2167,-106.4167,Mexico,658354
Lingbao Chengguanzhen,34.5221,110.8786,China,656571
Sialkot City,32.5,74.5333,Pakistan,655852
Hwasu-dong,37.2,126.7667,South Korea,655350
Durango,24.0167,-104.6667,Mexico,654876
Shimoga,13.9167,75.5667,India,654055
Tlalnepantla,19.5367,-99.1947,Mexico,653410
Bulawayo,-20.1667,28.5667,Zimbabwe,653337
Ansan,37.3236,126.8219,South Korea,652800
Xiping,25.6005,103.8166,China,652604
Huế,16.4637,107.5908,Vietnam,652572
Concord,37.9722,-122.0016,United States,652308
Sanhe,39.9808,117.0701,China,652042
San Jose del Monte,14.8139,121.0453,Philippines,651813
Ch’ŏnan,36.8064,127.1522,South Korea,651661
Tiruppūr,11.1075,77.3398,India,650000
Contagem,-19.9319,-44.0539,Brazil,648766
Guntūr,16.3,80.45,India,647508
Guixi,28.2861,117.2083,China,647240
Izhevsk,56.85,53.2167,Russia,646277
Düsseldorf,51.2311,6.7724,Germany,645923
Sorocaba,-23.5019,-47.4578,Brazil,644919
Tengyue,25.0208,98.4972,China,644765
Wuxue,29.8518,115.5539,China,644247
Colorado Springs,38.8674,-104.7606,United States,642413
Helsinki,60.1756,24.9342,Finland,642045
Honchō,35.6947,139.9825,Japan,641499
Ruiming,25.8833,116.0333,China,640600
Qufu,35.6,116.9833,China,640498
Gaobeidian,39.3257,115.8678,China,640280
Skopje,41.9833,21.4333,Macedonia,640000
Chisinau,47.0228,28.8353,Moldova,639000
Wrocław,51.11,17.0325,Poland,638586
Petaling Jaya,3.1073,101.6067,Malaysia,638516
Gold Coast,-28.0167,153.4,Australia,638090
Kikwit,-5.0333,18.8167,Congo (Kinshasa),637736
Xinshi,31.0236,113.1079,China,636776
Barnaul,53.3567,83.7872,Russia,633301
Jin’e,29.3395,105.2868,China,633210
Aracaju,-10.9167,-37.05,Brazil,632744
Cochabamba,-17.3935,-66.157,Bolivia,632013
Benghazi,32.1167,20.0667,Libya,631555
Jeonju,35.8219,127.1489,South Korea,631532
Rotterdam,51.9225,4.4792,Netherlands,631155
Stuttgart,48.7761,9.1775,Germany,630305
Kryvyi Rih,47.9086,33.3433,Ukraine,629695
Makati City,14.55,121.0333,Philippines,629616
Charleston,32.8153,-79.9628,United States,628377
Xinxing,39.8734,124.1453,China,627475
Suohe,34.7879,113.392,China,626700
Zhuangyuan,37.3056,120.8275,China,626683
Glasgow,55.8611,-4.25,United Kingdom,626410
Namangan,40.9953,71.6725,Uzbekistan,626120
Raurkela,22.2492,84.8828,India,625831
Ulyanovsk,54.3167,48.3667,Russia,624518
Mangalore,12.8703,74.8806,India,623841
Irkutsk,52.2833,104.3,Russia,623736
Nānded,19.17,77.3,India,623708
Springfield,42.1155,-72.5395,United States,623401
Bazhou,39.1235,116.386,China,622975
Turpan,42.95,89.1822,China,622903
Jos,9.9333,8.8833,Nigeria,622802
Ḩalwān,29.8419,31.3342,Egypt,619293
Villa Nueva,14.5314,-90.5964,Guatemala,618397
Pontianak,-0.0206,109.3414,Indonesia,618388
Meihekou,42.5279,125.678,China,618251
Jurong,31.9579,119.1595,China,617706
Feira de Santana,-12.2669,-38.9669,Brazil,617528
Khabarovsk,48.4833,135.0667,Russia,616242
Xinji,37.9423,115.2118,China,615919
Ta‘izz,13.5789,44.0219,Yemen,615467
Changping,40.2248,116.1944,China,614821
Sanya,18.2536,109.5019,China,614647
Riga,56.9475,24.1069,Latvia,614618
Chimalhuacán,19.4167,-98.9,Mexico,614453
Kandahār,31.6078,65.7053,Afghanistan,614254
Serang,-6.12,106.1503,Indonesia,613356
Zhangshu,28.0667,115.5375,China,610424
Grand Rapids,42.962,-85.6562,United States,609314
Yaroslavl,57.6167,39.85,Russia,608079
Kuantan,3.8167,103.3333,Malaysia,607778
Vladivostok,43.1167,131.9,Russia,606589
Las Piñas City,14.45,120.9833,Philippines,606293
Cuttack,20.465,85.8793,India,606007
San Miguel de Tucumán,-26.8167,-65.2167,Argentina,605767
Gothenburg,57.6717,11.981,Sweden,604829
Uberlândia,-18.9189,-48.2769,Brazil,604013
Zhuozhou,39.4887,115.9918,China,603535
Tianchang,32.6853,119.0041,China,602840
Jambi,-1.59,103.61,Indonesia,602187
Bacolod,10.6765,122.9509,Philippines,600783
Tumkūr,13.3422,77.1017,India,599078
Qamdo,31.1375,97.1777,China,598862
Tuxtla,16.7528,-93.1167,Mexico,598710
Balikpapan,-1.1489,116.9031,Indonesia,598043
Leipzig,51.3333,12.3833,Germany,597215
Chānda,19.95,79.3,India,595118
Durban,-29.8583,31.025,South Africa,595061
Al Ḩillah,23.4895,46.7564,Saudi Arabia,594605
Kagoshima,31.58,130.5281,Japan,593754
Brampton,43.6833,-79.7667,Canada,593638
Sihui,23.3448,112.6956,China,593400
Kawaguchi,35.8078,139.7242,Japan,593353
Mar del Plata,-38,-57.55,Argentina,593337
Makhachkala,42.9833,47.4833,Russia,592976
Irapuato,20.6667,-101.35,Mexico,592953
Luocheng,30.9793,104.28,China,591115
Pereira,4.8143,-75.6946,Colombia,590554
Mission Viejo,33.6095,-117.655,United States,590249
Reynosa,26.0922,-98.2778,Mexico,589466
Chuxiong,25.0461,101.5436,China,588620
Zāhedān,29.4833,60.8667,Iran,587730
Dortmund,51.5139,7.4653,Germany,587696
Cimahi,-6.8833,107.5333,Indonesia,586580
Albany,42.6664,-73.7987,United States,586383
Knoxville,35.9692,-83.9496,United States,586048
Jinhua,29.1046,119.6494,China,586000
Shangzhi,45.2116,127.962,China,585386
Cuiabá,-15.5958,-56.0969,Brazil,585367
Shah Alam,3.0833,101.5333,Malaysia,584340
Botou,38.074,116.57,China,584308
Suginami-ku,35.6833,139.6167,Japan,583609
Essen,51.4508,7.0131,Germany,582415
Itabashi,35.7667,139.6833,Japan,581337
Bucaramanga,7.1186,-73.1161,Colombia,581130
Genoa,44.4072,8.934,Italy,580097
Kingston,17.9714,-76.7931,Jamaica,580000
Aţ Ţā’if,21.2667,40.4167,Saudi Arabia,579970
Port Sudan,19.6158,37.2164,Sudan,579942
Bakersfield,35.3529,-119.0359,United States,579295
Wancheng,18.8,110.4,China,578600
Ogden,41.2278,-111.9682,United States,578523
Dehra Dūn,30.318,78.029,India,578420
Málaga,36.7194,-4.42,Spain,577405
Xiulin,29.7211,112.4037,China,577022
Fu’an,27.1,119.6333,China,577000
Hachiōji,35.6667,139.3167,Japan,575721
Vilnius,54.6833,25.2833,Lithuania,574147
Puente Alto,-33.6167,-70.5833,Chile,573935
Anyang,37.3925,126.9269,South Korea,573296
Tomsk,56.4886,84.9522,Russia,572740
Rabat,34.0253,-6.8361,Morocco,572717
Kumul,42.8322,93.5155,China,572400
Luofeng,37.359,120.396,China,570898
Lingyuan,41.2407,119.3957,China,570660
Baton Rouge,30.4418,-91.131,United States,570308
Tonalá,20.6167,-103.2333,Mexico,569913
Irbid,32.5556,35.85,Jordan,569068
Huzhou,30.8695,120.0958,China,569000
Wencheng,19.6167,110.75,China,568900
Macau,22.203,113.545,Macau,568700
Ciudad Bolívar,8.1167,-63.55,Venezuela,567953
San Salvador,13.6989,-89.1914,El Salvador,567698
Bristol,51.45,-2.5833,United Kingdom,567111
Bremen,53.0769,8.8089,Germany,566573
Durgāpur,23.55,87.32,India,566517
Shenzhou,38.0005,115.5541,China,566087
Akron,41.0798,-81.5219,United States,565208
New Haven,41.3112,-72.9246,United States,564830
Kuiju,36.8528,119.3904,China,564501
Orenburg,51.7667,55.1,Russia,564443
Zhenzhou,32.2739,119.1619,China,564021
Āsansol,23.6833,86.9667,India,563917
Djibouti,11.595,43.1481,Djibouti,562000
Jieshou,33.2605,115.3618,China,561956
Benguela,-12.55,13.4167,Angola,561775
Columbia,34.0376,-80.9037,United States,560041
Dangyang,30.8258,111.791,China,560000
Ensenada,31.8578,-116.6058,Mexico,557430
Kemerovo,55.3333,86.0667,Russia,556920
Bağcılar,41.0406,28.8261,Turkey,556519
Herāt,34.3738,62.1792,Afghanistan,556205
Juiz de Fora,-21.75,-43.35,Brazil,555284
Bhāvnagar,21.765,72.1369,India,554978
Dresden,51.05,13.74,Germany,554907
Hamadān,34.8,48.5167,Iran,554406
Luanzhou,39.7396,118.6978,China,554315
Dublin,53.3497,-6.2603,Ireland,553165
Chiclayo,-6.763,-79.8366,Peru,552508
Surakarta,-7.5667,110.8167,Indonesia,552118
Novokuznetsk,53.75,87.1167,Russia,552105
Cabinda,-5.5667,12.2,Angola,550000
Amrāvati,20.9333,77.75,India,549370
Korla,41.7646,86.1527,China,549324
Huanghua,38.371,117.3329,China,548507
Al Ḩudaydah,14.8022,42.9511,Yemen,548433
Londrina,-23.31,-51.1628,Brazil,548249
Tabūk,28.3838,36.555,Saudi Arabia,547957
Manchester,53.4794,-2.2453,United Kingdom,547627
Nellore,14.4333,79.9667,India,547621
Samarkand,39.6542,66.9597,Uzbekistan,546303
Xingcheng,40.6189,120.7205,China,546176
Kaiyuan,42.538,124.0371,China,545624
Valledupar,10.4603,-73.2597,Colombia,544134
Fengcheng,40.4543,124.0646,China,543933
Muntinlupa City,14.3833,121.05,Philippines,543445
Hannover,52.3744,9.7386,Germany,542668
Ghulja,43.9,81.35,China,542507
Ajmer,26.468,74.639,India,542321
Tinnevelly,8.7289,77.7081,India,542200
Fuding,27.2,120.2,China,542000
Heroica Matamoros,25.8797,-97.5042,Mexico,541979
An Nāşirīyah,31.0439,46.2575,Iraq,541600
Xiangyang,34.2999,108.4816,China,541554
Ibagué,4.4378,-75.2006,Colombia,541101
Al Ḩillah,32.4833,44.4333,Iraq,541034
City of Calamba,14.2167,121.1667,Philippines,539671
The Hague,52.08,4.31,Netherlands,537833
Kermān,30.2833,57.0667,Iran,537718
Ryazan,54.6167,39.7167,Russia,537622
Chang’an,29.4761,113.448,China,537500
Kassala,15.45,36.4,Sudan,536009
Aksu,41.1664,80.25,China,535657
Salta,-24.7883,-65.4106,Argentina,535303
Poznań,52.4083,16.9336,Poland,533830
Wuhai,39.6844,106.8158,China,532902
Mingguang,32.7816,117.9899,China,532732
Astrakhan,46.3333,48.0167,Russia,532504
Tripoli,34.4333,35.8333,Lebanon,530000
Naberezhnyye Chelny,55.7,52.3333,Russia,529797
Ardabīl,38.25,48.3,Iran,529374
Antwerp,51.2211,4.3997,Belgium,529247
Touba,14.8667,-15.8833,Senegal,529176
Bīkaner,28.0181,73.3169,India,529007
Ndola,-12.9683,28.6337,Zambia,528330
Villavicencio,4.1425,-73.6294,Colombia,527668
Himeji,34.8167,134.6833,Japan,527596
Ailan Mubage,43.9167,81.3167,China,526745
Bandar ‘Abbās,27.2,56.25,Iran,526648
Santa Teresa del Tuy,10.2333,-66.65,Venezuela,525321
Port Said,31.25,32.2833,Egypt,524433
Asunción,-25.3,-57.6333,Paraguay,524190
Penza,53.2,45,Russia,523726
Ciudad Apodaca,25.7833,-100.1833,Mexico,523370
Kōtō-ku,35.6667,139.8167,Japan,523117
Yucheng,36.9329,116.6403,China,522878
Agartala,23.8333,91.2667,India,522613
Soacha,4.5781,-74.2144,Colombia,522442
Maipú,-33.5167,-70.7667,Chile,521627
Arāk,34.08,49.7,Iran,520944
Tultitlán de Mariano Escobedo,19.645,-99.1694,Mexico,520557
Meknès,33.8833,-5.55,Morocco,520428
Pohang,36.0322,129.365,South Korea,520305
Bắc Ninh,21.1861,106.0763,Vietnam,520000
Longzhou,30.32,112.23,China,520000
Anda,46.4078,125.3252,China,520000
Jinghong,22.0057,100.7948,China,519935
Lyon,45.76,4.84,France,518635
Utsunomiya,36.55,139.8833,Japan,518197
Sheffield,53.3808,-1.4703,United Kingdom,518090
Mesa,33.4017,-111.718,United States,518012
Surrey,49.19,-122.8489,Canada,517887
Suez,29.9667,32.5333,Egypt,516959
Heshan,22.7697,112.9578,China,516500
Zhoushan,29.9887,122.2049,China,516000
Jiaji,19.2431,110.4642,China,515700
Santa Marta,11.2361,-74.2017,Colombia,515556
Nuremberg,49.4539,11.0775,Germany,515543
Joinvile,-26.3039,-48.8458,Brazil,515288
Ujjain,23.1828,75.7772,India,515215
Beining,41.5961,121.7928,China,514898
Maturín,9.7457,-63.1832,Venezuela,514046
Liverpool,53.4075,-2.9919,United Kingdom,513441
Yanji,42.9044,129.5067,China,513072
Yicheng,31.7117,112.2551,China,512530
Al ‘Amārah,31.8333,47.15,Iraq,511500
Carrefour,18.5333,-72.4,Haiti,511345
Ananindeua,-1.3658,-48.3719,Brazil,510834
Choloma,15.6333,-88,Honduras,510456
Lipetsk,52.6167,39.6,Russia,510439
Homyel’,52.4417,30.9833,Belarus,510300
Sevastopol,44.6,33.5333,Ukraine,509992
Encheng,22.1879,112.3131,China,509700
Hải Dương,20.9399,106.3309,Vietnam,507469
Aden,12.8,45.0333,Yemen,507355
Palm Bay,27.955,-80.6627,United States,507002
Jhānsi,25.4486,78.5696,India,507000
Matsuyama,33.8333,132.7667,Japan,506743
Lisbon,38.708,-9.139,Portugal,506654
Kashgar,39.45,75.9833,China,506640
Ulhāsnagar,19.2167,73.15,India,506098
Montería,8.76,-75.8856,Colombia,505334
Kitwe,-12.8208,28.2119,Zambia,504194
Davangere,14.4667,75.9167,India,503564
Pingtung,22.6761,120.4942,Taiwan,503530
Jammu,32.7333,74.85,India,502197
Yiwu,29.3081,120.0698,China,502000
Ile-Ife,7.4667,4.5667,Nigeria,501952
Kirov,58.6,49.65,Russia,501468
Provo,40.2457,-111.6457,United States,500617
Meicheng,30.6412,116.5689,China,500292
Jiaxing,30.7522,120.75,China,500100
Belas,-9.0689,13.1608,Angola,500000
Talatona,-8.9167,13.1833,Angola,500000
Sukkur,27.6995,68.8673,Pakistan,499900
Taozhou,30.8956,119.411,China,499132
Mykolaiv,46.9667,32,Ukraine,498748
Worcester,42.2705,-71.8079,United States,498328
Hongjiang,27.1167,109.95,China,498100
Chimbote,-9.0745,-78.5936,Peru,497875
Qaraghandy,49.8,73.1167,Kazakhstan,497777
Lapu-Lapu City,10.3127,123.9488,Philippines,497604
Johor Bahru,1.4556,103.7611,Malaysia,497097
Imus,14.4297,120.9367,Philippines,496794
Niterói,-22.8833,-43.1036,Brazil,496696
Ichikawa,35.7219,139.9311,Japan,496657
Beipiao,41.802,120.7621,China,496164
Dengtacun,41.4237,123.3203,China,496122
Murrieta,33.572,-117.1909,United States,496046
Zhijiang,30.4271,111.7506,China,495995
Suoluntun,45.1804,124.82,China,495900
Duisburg,51.4322,6.7611,Germany,495885
Chengjiao,35.4043,114.0593,China,495744
Ixtapaluca,19.3186,-98.8822,Mexico,495566
Celaya,20.5222,-100.8122,Mexico,494304
Oujda-Angad,34.6867,-1.9114,Morocco,494252
Duyun,26.2672,107.5143,China,493574
Nyala,12.05,24.8833,Sudan,492984
Matsudo,35.7878,139.9031,Japan,492367
Kota Bharu,6.1333,102.25,Malaysia,491237
Yuanping,38.7299,112.7134,China,491213
Higashi-ōsaka,34.6794,135.6008,Japan,490819
Larkana,27.56,68.2264,Pakistan,490508
‘Ajmān,25.3994,55.4797,United Arab Emirates,490035
Vinh,18.6733,105.6922,Vietnam,490000
Los Mochis,25.7835,-108.9937,Mexico,490000
Ciudad López Mateos,19.55,-99.2833,Mexico,489937
Cheboksary,56.1333,47.25,Russia,489498
Belgaum,15.8667,74.5,India,488157
Edinburgh,55.953,-3.189,United Kingdom,488050
Nishinomiya-hama,34.7333,135.3333,Japan,487010
Toulouse,43.6045,1.444,France,486828
Shahe,36.8622,114.502,China,486329
Serra,-20.1289,-40.3078,Brazil,485376
Tula,54.2,37.6167,Russia,485221
Gaoping,35.7911,112.9259,China,484862
Greenville,34.8353,-82.3647,United States,484465
Dunhua,43.3667,128.2333,China,483811
Gulbarga,17.3333,76.8333,India,483615
Brookhaven,40.8321,-72.9518,United States,483546
Wichita,37.6896,-97.3442,United States,482249
Toledo,41.6639,-83.5822,United States,482111
Kaihua,23.3715,104.2437,China,481505
Az Zarqā’,32.0833,36.1,Jordan,481300
Fuyuan,48.3614,134.2875,China,480000
Jāmnagar,22.47,70.07,India,479920
Sylhet,24.9,91.8667,Bangladesh,479837
Dhūlia,20.9,74.7833,India,479073
Jiannan,31.3446,104.1994,China,477868
Florianópolis,-27.5933,-48.553,Brazil,477798
Chiniot,31.7167,72.9833,Pakistan,477781
Ōita,33.2333,131.6067,Japan,477186
Staten Island,40.5834,-74.1496,United States,476143
Nangong,37.3606,115.3803,China,476096
Bratislava,48.1447,17.1128,Slovakia,475503
Kaliningrad,54.7167,20.5,Russia,475056
Kurashiki,34.585,133.7719,Japan,474862
Macapá,0.033,-51.0653,Brazil,474706
Gaya,24.75,85.0167,India,474093
Des Moines,41.5725,-93.6105,United States,473957
Shekhupura,31.7083,74,Pakistan,473129
Piura,-5.2008,-80.6253,Peru,473025
Vila Velha,-20.3364,-40.2936,Brazil,472762
Jiaojiangcun,28.6804,121.45,China,471500
Laohekou,32.3849,111.6695,China,471482
San Juan,-31.5375,-68.5364,Argentina,471389
Kitchener,43.4186,-80.4728,Canada,470015
Beian,48.2395,126.5037,China,470000
Fujin,47.2489,132.0341,China,470000
Küçükçekmece,41,28.8,Turkey,469431
Mazār-e Sharīf,36.7,67.1167,Afghanistan,469247
Xiaoyi,37.1449,111.7718,China,468770
Qingzhen,26.5555,106.4646,China,467992
Ba‘qūbah,33.7447,44.6436,Iraq,467900
Buraydah,26.3333,43.9667,Saudi Arabia,467410
Leicester,52.6344,-1.1319,United Kingdom,464395
Gdańsk,54.3667,18.6333,Poland,464254
Campos,-21.7539,-41.3239,Brazil,463731
Angeles City,15.1472,120.5847,Philippines,462928
Long Beach,33.7981,-118.1675,United States,462628
Kuqa,41.7152,82.9604,China,462588
Kanazawa,36.5611,136.6565,Japan,462479
Calabar,4.95,8.325,Nigeria,461796
Manado,1.4931,124.8413,Indonesia,461636
Port St. Lucie,27.2796,-80.3883,United States,461152
Cranbourne,-38.0996,145.2834,Australia,460491
Jalgaon,21.0167,75.5667,India,460468
Murcia,37.9861,-1.1303,Spain,460349
Xicheng,23.3629,103.1545,China,459781
Fukuyama,34.4858,133.3625,Japan,459576
Lanús,-34.7,-58.4,Argentina,459263
Pyeongtaek,36.9947,127.0889,South Korea,457873
Kurnool,15.8222,78.035,India,457633
Iloilo,10.7167,122.5667,Philippines,457626
Denton,33.2176,-97.1419,United States,457177
Marikina City,14.65,121.1,Philippines,456059
Jian’ou,27.0387,118.3215,China,456000
Huadian,42.9633,126.7478,China,455339
Melaka,2.1889,102.2511,Malaysia,455300
Katsushika-ku,35.7333,139.85,Japan,453410
Mauá,-23.6678,-46.4608,Brazil,453286
Minzhu,43.7192,127.337,China,453265
Kota Kinabalu,5.975,116.0725,Malaysia,452058
Tel Aviv-Yafo,32.08,34.78,Israel,451523
Udaipur,24.5833,73.6833,India,451100
Balashikha,55.8,37.95,Russia,450771
General Trias,14.3833,120.8833,Philippines,450583
Amagasaki,34.7333,135.4,Japan,450506
Mariupol,47.1306,37.5639,Ukraine,449498
Kursk,51.7372,36.1872,Russia,449063
Constantine,36.365,6.6147,Algeria,448374
Eslāmshahr,35.5522,51.235,Iran,448129
Rājshāhi,24.3667,88.6,Bangladesh,448087
Barcelona,10.1333,-64.6833,Venezuela,448016
Tanbei,35.0907,112.9317,China,447701
Madison,43.0826,-89.3931,United States,447245
Ado-Ekiti,7.6167,5.2167,Nigeria,446749
Hsinchu,24.8047,120.9714,Taiwan,445635
Bellary,15.15,76.915,India,445388
Reno,39.5497,-119.8483,United States,445020
Santiago de Cuba,20.0217,-75.8294,Cuba,444851
Yongji,34.867,110.4417,China,444724
Rodriguez,14.7167,121.1167,Philippines,443954
Danjiangkou,32.5408,111.5098,China,443755
Taoyuan District,24.9889,121.3111,Taiwan,443273
San Nicolás de los Garza,25.75,-100.2833,Mexico,443273
São José do Rio Prêto,-20.82,-49.3789,Brazil,442548
Harrisburg,40.2752,-76.8843,United States,442289
Andijon,40.7,72.35,Uzbekistan,441700
Pasay City,14.55,121,Philippines,440656
Ning’an,44.3439,129.4656,China,440000
Little Rock,34.7256,-92.3576,United States,439815
Tallinn,59.4372,24.745,Estonia,438341
Jinchang,38.5168,102.1866,China,438026
Guangming,45.3357,122.7765,China,437559
Kâğıthane,41.0719,28.9664,Turkey,437026
Sunch’ŏn,39.4167,125.9333,North Korea,437000
Bukavu,-2.4908,28.8428,Congo (Kinshasa),436779
Fujisawa,35.3388,139.4911,Japan,436744
Sāngli,16.8667,74.5667,India,436639
Beira,-19.8333,34.85,Mozambique,436240
Tuticorin,8.7833,78.1333,India,436094
Caxias do Sul,-29.1678,-51.1789,Brazil,435564
Jeju,33.5097,126.5219,South Korea,435413
Machida,35.5486,139.4467,Japan,434414
Manizales,5.0661,-75.4847,Colombia,434403
Zürich,47.3744,8.5411,Switzerland,434008
Kupang,-10.1633,123.5778,Indonesia,433970
Santos,-23.9608,-46.3339,Brazil,433966
Kashiwa,35.8544,139.9689,Japan,433941
Cape Town,-33.925,18.425,South Africa,433688
Stavropol,45.05,41.9833,Russia,433577
Zanjān,36.6667,48.4833,Iran,433475
Oakland,37.7903,-122.2165,United States,433031
Kāshān,33.9833,51.4333,Iran,432557
Welkom,-27.9831,26.7208,South Africa,431944
Ulan-Ude,51.8272,107.6064,Russia,431922
Calicut,11.25,75.7667,India,431560
Kenitra,34.25,-6.5833,Morocco,431282
Sidi Bouzid,35.0381,9.4858,Tunisia,429912
Uyo,5.05,7.9333,Nigeria,429900
Masan,35.1833,128.55,South Korea,429612
Ţanţā,30.7833,31,Egypt,429503
Porto Velho,-8.7619,-63.9039,Brazil,428527
Cusco,-13.5222,-71.9833,Peru,428450
Veracruz,19.1903,-96.1533,Mexico,428323
Sokoto,13.0622,5.2339,Nigeria,427760
Yan’an Beilu,44.0222,87.2961,China,426253
Florencio Varela,-34.8167,-58.2833,Argentina,426005
Aomori,40.8222,140.7475,Japan,425962
Akola,20.7333,77,India,425817
Mandaluyong City,14.5833,121.0333,Philippines,425758
Sihŭng,37.3803,126.803,South Korea,425184
Xalapa,19.54,-96.9275,Mexico,424755
Durham,35.9794,-78.9031,United States,424700
Mogi das Cruzes,-23.5228,-46.1931,Brazil,424633
Buenaventura,3.8772,-77.0267,Colombia,423927
Yazd,31.8972,54.3678,Iran,423006
Laval,45.5833,-73.75,Canada,422993
Yogyakarta,-7.8014,110.3644,Indonesia,422732
Likasi,-10.9833,26.7333,Congo (Kinshasa),422535
Winston-Salem,36.1029,-80.2611,United States,422269
Toyota,35.0833,137.1567,Japan,422106
Agadir,30.4167,-9.5833,Morocco,421844
Elazığ,38.6667,39.2167,Turkey,421726
Uijeongbu,37.7486,127.0389,South Korea,421579
Hpa-An,16.8906,97.6333,Myanmar,421525
Bonita Springs,26.3559,-81.7861,United States,421291
Mishan,45.542,131.8666,China,420000
Hailin,44.5735,129.3825,China,420000
Seremban,2.7297,101.9381,Malaysia,419536
Zhengjiatun,43.513,123.5003,China,419529
Lecheng,25.1307,113.3472,China,419500
Palma,39.5667,2.65,Spain,419366
Tver,56.8578,35.9219,Russia,419363
Pencheng,29.6792,115.6611,China,419047
Wellington,-41.2889,174.7772,New Zealand,418500
Tirana,41.33,19.82,Albania,418495
El Obeid,13.1833,30.2167,Sudan,418280
Magnitogorsk,53.3833,59.0333,Russia,418241
Dalai,45.505,124.2863,China,418232
Kolwezi,-10.7167,25.4667,Congo (Kinshasa),418000
Luhansk,48.5833,39.3333,Ukraine,417990
Xingren,25.4352,105.1907,China,417919
Takamatsu,34.35,134.05,Japan,417814
Wenlan,23.3689,103.3881,China,417156
Indio,33.7346,-116.2346,United States,417059
Palm Coast,29.5392,-81.246,United States,417007
Arusha,-3.3667,36.6833,Tanzania,416442
Fenyang,37.2652,111.7793,China,416212
Shinagawa-ku,35.6,139.7333,Japan,415729
Chattanooga,35.0657,-85.2488,United States,415501
Paju,37.8328,126.8169,South Korea,415345
Santa Rosa,14.3167,121.1167,Philippines,414812
Nagqu,31.4766,92.0569,China,414554
Jhang City,31.2681,72.3181,Pakistan,414131
Rio Branco,-9.9781,-67.8117,Brazil,413418
Jayapura,-2.5333,140.7167,Indonesia,413283
Toyama,36.7,137.22,Japan,413028
Sanandaj,35.3097,46.9989,Iran,412767
Fangting,31.1282,104.1695,China,412758
Linghai,41.1676,121.3558,China,412513
Diadema,-23.6858,-46.6228,Brazil,412428
Spokane,47.6671,-117.433,United States,412275
Sochi,43.5853,39.7203,Russia,411524
Dodoma,-6.1835,35.746,Tanzania,410956
Bhāgalpur,25.25,87.0167,India,410210
Kisumu,-0.1,34.75,Kenya,409928
Zhangjiakou Shi Xuanhua Qu,40.5944,115.0243,China,409745
Türkmenabat,39.1,63.5667,Turkmenistan,408906
Mataram,-8.5833,116.1167,Indonesia,408900
Zaria,11.0667,7.7,Nigeria,408198
Taiping,32.0691,108.0351,China,407594
Biñan,14.3333,121.0833,Philippines,407437
Maracay,10.2469,-67.5958,Venezuela,407109
Ivanovo,57,41,Russia,406933
Bryansk,53.25,34.3667,Russia,406553
Jiexiu,37.0282,111.9103,China,406517
Santa Fe,-31.6333,-60.7,Argentina,405683
Campina Grande,-7.2306,-35.8811,Brazil,405072
Nagasaki,32.7833,129.8667,Japan,404656
Syracuse,43.0409,-76.1438,United States,404223
Szczecin,53.4247,14.5553,Poland,403833
Halifax,44.6475,-63.5906,Canada,403131
Maringá,-23.425,-51.9389,Brazil,403063
Qazvīn,36.2688,50.0041,Iran,402748
Mbale,1.0806,34.175,Uganda,402368
Jundiaí,-23.1864,-46.8842,Brazil,401896
Lancaster,40.0421,-76.3012,United States,401524
Toyonaka,34.7833,135.4667,Japan,401233
Gifu,35.4167,136.7667,Japan,400118
Sīkar,27.6119,75.1397,India,400000
Jiangjiafan,31.0304,112.1,China,400000
Dera Ghazi Khan,30.05,70.6333,Pakistan,399064
Arlington,32.6998,-97.125,United States,398854
Miyazaki,31.9167,131.4167,Japan,397476
Quilon,8.8853,76.5864,India,397419
Stockton,37.9765,-121.3109,United States,397264
Xushan,30.1697,121.2665,China,397000
Yuyao,30.0372,121.1546,China,397000
Hirakata,34.8167,135.65,Japan,396694
Sandakan,5.8388,118.1173,Malaysia,396290
Bissau,11.8592,-15.5956,Guinea-Bissau,395954
Hejin,35.5914,110.706,China,395527
Poughkeepsie,41.6949,-73.921,United States,394760
Thanh Hóa,19.8075,105.7764,Vietnam,393294
Lobito,-12.3597,13.5308,Angola,393079
Saurimo,-9.6589,20.3934,Angola,393000
Yola,9.2,12.4833,Nigeria,392854
Carapicuíba,-23.5228,-46.8358,Brazil,392294
Nha Trang,12.2495,109.1908,Vietnam,392279
Ad Dīwānīyah,31.9892,44.9247,Iraq,391600
Piracicaba,-22.7253,-47.6492,Brazil,391449
Hancheng,35.4768,110.4419,China,391164
Belgorod,50.6,36.6,Russia,391135
Karamay,45.5928,84.8711,China,391008
Augusta,33.3645,-82.0708,United States,390809
Gujrat,32.5736,74.0789,Pakistan,390533
Yokosuka,35.25,139.6667,Japan,390275
Tieli,46.9838,128.04,China,390000
Bhīlwāra,25.35,74.6333,India,389911
Olinda,-8.0089,-34.855,Brazil,389494
Asyūţ,27.1869,31.1714,Egypt,389307
Boise,43.6007,-116.2312,United States,389280
Bologna,44.4939,11.3428,Italy,389261
Nizāmābād,18.6704,78.1,India,388505
Aqtöbe,50.2836,57.2297,Kazakhstan,387807
Oxnard,34.1963,-119.1815,United States,387647
Cilegon,-6.0167,106.0167,Indonesia,387543
Oyo,7.8333,3.9333,Nigeria,386723
Taytay,14.5692,121.1325,Philippines,386451
Bhātpāra,22.8667,88.4167,India,386019
Mwanza,-2.5167,32.9,Tanzania,385810
Tarlac City,15.4802,120.5979,Philippines,385398
Okazaki,34.95,137.1667,Japan,385376
Ḩā’il,27.5236,41.7001,Saudi Arabia,385257
Minamisuita,34.7667,135.5167,Japan,384953
Lianzhou,24.7868,112.3735,China,384700
Yidu,30.388,111.4505,China,384598
Scranton,41.4044,-75.6649,United States,384250
Kākināda,16.9333,82.2167,India,384182
Nuevo Laredo,27.4861,-99.5069,Mexico,384033
London,42.9836,-81.2497,Canada,383822
Christchurch,-43.5309,172.6365,New Zealand,383200
Gusau,12.1667,6.6667,Nigeria,383162
Modesto,37.6374,-121.0028,United States,383134
Kissimmee,28.3042,-81.4164,United States,382720
Brno,49.1953,16.6083,Czechia,382405
Pasto,1.21,-77.2747,Colombia,382236
Canberra,-35.2931,149.1269,Australia,381488
Florence,43.7714,11.2542,Italy,380948
Tétouan,35.5667,-5.3667,Morocco,380787
Esenler,41.0794,28.8539,Turkey,380709
Malabon,14.6625,120.9567,Philippines,380522
Novi Sad,45.2644,19.8317,Serbia,380000
Aurora,39.7087,-104.7273,United States,379289
Youngstown,41.0993,-80.6463,United States,378732
Ichinomiya,35.3039,136.8031,Japan,378681
Las Palmas,28.1272,-15.4314,Spain,378675
Usulután,13.35,-88.45,El Salvador,378606
Parbhani,19.2704,76.76,India,378326
Huancayo,-12.0667,-75.2167,Peru,378203
Betim,-19.9678,-44.1978,Brazil,378089
Sintra,38.7974,-9.3904,Portugal,377835
Iquitos,-3.7333,-73.25,Peru,377609
Pānihāti,22.69,88.37,India,377347
Cainta,14.5667,121.1167,Philippines,376933
Helixi,30.6267,118.9861,China,376857
Manukau City,-37,174.885,New Zealand,375600
Cumaná,10.45,-64.1667,Venezuela,374706
Lātūr,18.4004,76.57,India,374394
Rohtak,28.9,76.5667,India,374292
Khorramābād,33.4667,48.35,Iran,373416
Esenyurt,41.0343,28.6801,Turkey,373017
Lipa City,13.9411,121.1622,Philippines,372931
Butuan,8.9534,125.5288,Philippines,372910
Juba,4.85,31.6,South Sudan,372410
Ambon,-3.705,128.17,Indonesia,372249
Vinnytsia,49.2167,28.4333,Ukraine,371855
Bello,6.3319,-75.5581,Colombia,371591
Toyohashi,34.7692,137.3916,Japan,371507
Anguo,38.4177,115.3204,China,370317
Lengshuijiang,27.6858,111.4279,China,370300
Panshi,42.9392,126.0561,China,370238
Madan,30.3307,48.2797,Iran,370180
Keelung,25.1283,121.7419,Taiwan,370155
Az Zubayr,30.3892,47.7081,Iraq,370000
Rājapālaiyam,9.4204,77.58,India,369991
Al Qaţīf,26.5196,50.0115,Saudi Arabia,368892
Takasaki,36.3167,139,Japan,367463
Nagano,36.6486,138.1928,Japan,367184
Huichang,34.9136,112.7852,China,367113
Bauru,-22.3147,-49.0606,Brazil,366992
La Florida,-33.55,-70.5667,Chile,366916
Plovdiv,42.1421,24.7415,Bulgaria,366511
Anápolis,-16.3269,-48.9528,Brazil,366491
Baguio City,16.4152,120.5956,Philippines,366358
Vitsyebsk,55.1833,30.1667,Belarus,364800
Tecámac,19.7131,-98.9683,Mexico,364579
Bochum,51.4833,7.2167,Germany,364454
Mandaue City,10.3333,123.9333,Philippines,364116
Yanjiao,39.9432,116.8036,China,363809
Wŏnsan,39.1475,127.4461,North Korea,363127
Iligan,8.2333,124.25,Philippines,363115
Coventry,52.4081,-1.5106,United Kingdom,362690
Montes Claros,-16.7322,-43.8636,Brazil,361915
Blumenau,-26.9189,-49.0658,Brazil,361855
Caerdydd,51.4817,-3.1792,United Kingdom,361469
Beirut,33.8869,35.5131,Lebanon,361366
Surgut,61.25,73.4333,Russia,360590
Bengkulu,-3.7956,102.2592,Indonesia,360495
Shuanghejiedao,30.3866,106.7756,China,360000
Wudalianchi,48.6433,126.1408,China,360000
Pétion-Ville,18.5098,-72.2856,Haiti,359615
Palu,-0.895,119.8594,Indonesia,359350
Umuahia,5.5333,7.4833,Nigeria,359230
Sungai Petani,5.65,100.48,Malaysia,358499
Taraz,42.8833,71.3667,Kazakhstan,357795
Cubal,-13.1117,14.3672,Angola,357618
Mahilyow,53.9089,30.343,Belarus,357100
Yong’an,25.9733,117.3593,China,357000
Hrodna,53.6667,23.8167,Belarus,356900
Manisa,38.6333,27.4167,Turkey,356702
Vladimir,56.1286,40.4058,Russia,356168
Minatitlán,17.9833,-94.55,Mexico,356020
Vitória,-20.3189,-40.3378,Brazil,355875
Nizhniy Tagil,57.9167,59.9667,Russia,355693
Yamoussoukro,6.8161,-5.2742,Côte d'Ivoire,355573
São Vicente,-23.9633,-46.3922,Brazil,355542
Orizaba,18.85,-97.1,Mexico,355333
Cabuyao,14.275,121.125,Philippines,355330
Hongzhai,35.0476,104.6394,China,355037
Wuppertal,51.2667,7.1833,Germany,355004
Gedaref,14.0333,35.3833,Sudan,354927
San Fernando,15.0333,120.6833,Philippines,354666
Kawagoe,35.9333,139.4833,Japan,354195
Pavlodar,52.3156,76.9564,Kazakhstan,353930
Pokhara,28.2097,83.9853,Nepal,353841
Van,38.5019,43.4167,Turkey,353419
Wakayama,34.2333,135.1667,Japan,353299
Rahimyar Khan,28.4202,70.2952,Pakistan,353203
Kita-ku,35.75,139.7333,Japan,353058
Neiva,2.9275,-75.2875,Colombia,353033
Itaquaquecetuba,-23.4864,-46.3486,Brazil,352801
Gimpo,37.6236,126.7142,South Korea,352683
Corrientes,-27.4833,-58.8167,Argentina,352646
Licheng,24.4935,110.3902,China,352472
Nara,34.6833,135.7833,Japan,352377
Yakeshi,49.2842,120.7283,China,352173
Nam Định,20.42,106.1683,Vietnam,352108
Sinŭiju,40.1,124.4,North Korea,352000
Cabimas,10.4,-71.4333,Venezuela,351735
Arkhangelsk,64.55,40.5333,Russia,351488
Batangas,13.75,121.05,Philippines,351437
Fayetteville,36.0713,-94.166,United States,351246
Yueqing,28.1188,120.9621,China,351200
Ibb,13.9667,44.1667,Yemen,350864
Ahmadnagar,19.0833,74.7333,India,350859
Anaheim,33.839,-117.8572,United States,350365
Semey,50.4111,80.2275,Kazakhstan,350201
Holguín,20.8872,-76.2631,Cuba,350191
Qoqon,40.5404,70.94,Uzbekistan,350000
Yingmen,39.83,97.73,China,350000
Palmira,3.5347,-76.2956,Colombia,349294
Cariacica,-20.2639,-40.42,Brazil,348738
Antofagasta,-23.6464,-70.398,Chile,348517
Tapachula,14.9,-92.2667,Mexico,348156
Hatay,36.2025,36.1606,Turkey,347974
Varna,43.2114,27.9111,Bulgaria,347924
Takatsuki,34.85,135.6167,Japan,347496
Chita,52.0333,113.5,Russia,347088
Caruaru,-8.2828,-35.9758,Brazil,347088
Pensacola,30.4427,-87.1886,United States,346921
Victorville,34.5277,-117.3536,United States,346789
Koshigaya,35.8911,139.7908,Japan,346768
Bydgoszcz,53.1167,18,Poland,346739
Bilbao,43.2569,-2.9236,Spain,346405
Shinjuku,35.7,139.7167,Japan,346115
Tanch’ŏn,40.458,128.911,North Korea,345876
Kūstī,13.17,32.66,Sudan,345068
Cuddapah,14.4667,78.8167,India,344893
Konak,38.4183,27.1347,Turkey,344678
Utrecht,52.0889,5.1156,Netherlands,343779
Lancaster,34.6935,-118.1753,United States,343304
Vitória da Conquista,-14.8658,-40.8389,Brazil,343230
Makiivka,48.0556,37.9611,Ukraine,343158
Greensboro,36.0956,-79.8269,United States,343090
Ōtsu,35.0167,135.85,Japan,342607
Corpus Christi,27.726,-97.3755,United States,342464
Gómez Palacio,25.5611,-103.4983,Mexico,342286
Franca,-20.5389,-47.4008,Brazil,342112
Yeosu,34.7368,127.7458,South Korea,341994
Kaluga,54.5333,36.2667,Russia,341892
Rājahmundry,16.9833,81.7833,India,341831
Simferopol,44.9484,34.1,Ukraine,341799
Alwar,27.5667,76.6167,India,341422
Lianran,24.9211,102.4778,China,341341
Sumqayıt,40.5917,49.6397,Azerbaijan,341200
Tokorozawa,35.7994,139.4689,Japan,341195
Nice,43.7034,7.2663,France,341032
Nakano,35.7074,139.6638,Japan,341014
Chitungwiza,-18,31.1,Zimbabwe,340360
Brest,52.0847,23.6569,Belarus,340318
Buôn Ma Thuột,12.6667,108.05,Vietnam,340000
Lublin,51.2333,22.5667,Poland,339850
Cuernavaca,18.9186,-99.2342,Mexico,338650
East London,-33.0153,27.9116,South Africa,338627
Kaesŏng,37.964,126.5644,North Korea,338155
Jitpur,27.6666,85.3333,Nepal,337785
Petrolina,-9.3928,-40.5078,Brazil,337683
Tangdong,25.9755,113.2302,China,337495
Alicante,38.3453,-0.4831,Spain,337304
Chinju,35.1928,128.0847,South Korea,337230
Randburg,-26.0936,28.0064,South Africa,337053
Iwaki,37.0333,140.8833,Japan,336111
Victoria,48.4283,-123.3647,Canada,335696
Hirosaki,40.6031,140.4642,Japan,335203
Yingzhong,32.2381,119.8133,China,334977
Uruapan,19.4208,-102.0628,Mexico,334749
Fort Wayne,41.0886,-85.1437,United States,334122
Belfast,54.5964,-5.93,United Kingdom,333871
Bielefeld,52.0167,8.5333,Germany,333509
Muzaffarpur,26.12,85.3833,India,333200
Beni,0.4911,29.4731,Congo (Kinshasa),332903
Viña del Mar,-33.0245,-71.5518,Chile,332875
Hangu,39.232,117.777,China,332793
Wad Medani,14.4,33.51,Sudan,332714
Santa Ana,33.7366,-117.8819,United States,332318
Flint,43.0235,-83.6922,United States,332190
Soledad de Graciano Sánchez,22.1833,-100.9333,Mexico,332072
Blida,36.4722,2.8333,Algeria,331779
Maebashi,36.3833,139.0667,Japan,331576
Islip,40.7384,-73.1887,United States,331499
Gəncə,40.6828,46.3606,Azerbaijan,331400
Asahikawa,43.7706,142.365,Japan,331392
Ribeirão das Neves,-19.7669,-44.0869,Brazil,331045
Kendari,-3.9675,122.5947,Indonesia,331013
Wŏnju,37.3417,127.9208,South Korea,330854
Maseru,-29.31,27.48,Lesotho,330790
Lafia,8.5,8.5167,Nigeria,330712
Dahūk,36.85,42.9833,Iraq,330600
Bonn,50.7339,7.0997,Germany,330579
Mathura,27.5035,77.6722,India,330511
Kāmārhāti,22.67,88.37,India,330211
Mymensingh,24.7504,90.38,Bangladesh,330126
Nicosia,35.1725,33.365,Cyprus,330000
Thái Nguyên,21.6,105.85,Vietnam,330000
Bamiantong,44.9164,130.5212,China,330000
Cuenca,-2.8974,-79.0045,Ecuador,329928
Smolensk,54.7828,32.0453,Russia,329853
Koriyama,37.4128,140.295,Japan,329706
Ciudad Obregón,27.4939,-109.9389,Mexico,329404
Patiāla,30.3204,76.385,India,329224
İzmir,38.4127,27.1384,Turkey,329052
Markham,43.8767,-79.2633,Canada,328966
Pelotas,-31.7719,-52.3428,Brazil,328275
Saugor,23.83,78.71,India,328240
Fayetteville,35.0846,-78.9776,United States,327435
Bijāpur,16.8244,75.7154,India,327427
Cabanatuan City,15.4833,120.9667,Philippines,327325
Salamanca,20.5703,-101.1972,Mexico,327169
Ulanhot,46.0726,122.0719,China,327081
Vũng Tàu,10.4042,107.1417,Vietnam,327000
Yunzhong,39.8143,113.0946,China,326849
Al Fallūjah,33.35,43.7833,Iraq,326471
Boa Vista,2.82,-60.6719,Brazil,326419
Roodepoort,-26.1625,27.8725,South Africa,326416
Volzhskiy,48.7833,44.7667,Russia,326055
Pucallpa,-8.3833,-74.55,Peru,326040
San Pedro,14.3583,121.0583,Philippines,326001
Kōchi,33.5589,133.5314,Japan,325560
Caucaia,-3.7328,-38.6558,Brazil,325441
Jackson,32.3163,-90.2124,United States,325350
Uberaba,-19.7478,-47.9319,Brazil,325279
Kuching,1.5397,110.3542,Malaysia,325132
Cotabato,7.2167,124.25,Philippines,325079
Brahmapur,19.32,84.8,India,324726
Santa Rosa,38.4458,-122.7067,United States,324634
Cluj-Napoca,46.78,23.5594,Romania,324576
Yıldırım,40.1878,29.0822,Turkey,324377
Lansing,42.7142,-84.5601,United States,324286
Gonaïves,19.4456,-72.6883,Haiti,324043
Nazrēt,8.55,39.2667,Ethiopia,324000
Gonder,12.6,37.4667,Ethiopia,323900
Canoas,-29.92,-51.18,Brazil,323827
Mekele,13.4969,39.4769,Ethiopia,323700
Bari,41.1253,16.8667,Italy,323370
San Juan,18.4037,-66.0636,Puerto Rico,323279
Binxian,35.0364,108.0764,China,323256
Lexington,38.0423,-84.4587,United States,323152
Kaiyuan,23.7147,103.2585,China,322693
Uíge,-7.6087,15.0613,Angola,322531
Windhoek,-22.57,17.0836,Namibia,322500
Dongyang,29.2785,120.2282,China,322500
Hotan,37.1012,79.9327,China,322300
Ann Arbor,42.2755,-83.7312,United States,322267
Minna,9.6139,6.5569,Nigeria,322163
Córdoba,37.8845,-4.7796,Spain,322071
Camagüey,21.3786,-77.9186,Cuba,321992
Taourirt,34.41,-2.89,Morocco,321876
San Salvador de Jujuy,-24.1856,-65.2994,Argentina,321789
Al Kūt,32.4907,45.8304,Iraq,321521
Sukabumi,-6.9197,106.9272,Indonesia,320970
Menongue,-14.6556,17.6842,Angola,320914
Ciudad del Este,-25.5167,-54.6167,Paraguay,320782
Shāhjānpur,27.8804,79.905,India,320434
Jūnāgadh,21.52,70.47,India,320250
Henderson,36.0133,-115.038,United States,320189
Guasave,25.5744,-108.4706,Mexico,320000
Maroua,10.5823,14.3275,Cameroon,319941
Asan,36.35,126.9167,South Korea,319929
Nukus,42.4647,59.6022,Uzbekistan,319583
Kaech’ŏn,39.6986,125.9061,North Korea,319554
Tehuacán,18.4617,-97.3928,Mexico,319375
Timişoara,45.7597,21.23,Romania,319279
Huntsville,34.6988,-86.6412,United States,319249
Coatzacoalcos,18.15,-94.4333,Mexico,319187
Öskemen,49.99,82.6149,Kazakhstan,319067
Zalantun,48.0033,122.7365,China,318933
Cherepovets,59.1333,37.9167,Russia,318856
Tepic,21.5083,-104.8931,Mexico,318781
Katsina,12.9889,7.6008,Nigeria,318459
Gwangmyeongni,37.4772,126.8664,South Korea,318021
Poltava,49.5744,34.5686,Ukraine,317847
Port Moresby,-9.4789,147.1494,Papua New Guinea,317374
Boaco,12.4667,-85.6667,Nicaragua,317000
Münster,51.9625,7.6256,Germany,316403
Cirebon,-6.7167,108.5667,Indonesia,316126
Naha,26.2122,127.6789,Japan,316048
Al Fayyūm,29.3,30.8333,Egypt,315940
Trichūr,10.52,76.21,India,315596
Mobile,30.6783,-88.1162,United States,315502
Bor,6.2167,31.55,South Sudan,315351
Cà Mau,9.1833,105.15,Vietnam,315270
Thessaloníki,40.6403,22.9356,Greece,315196
San Miguelito,9.033,-79.5,Panama,315019
Saransk,54.1833,45.1833,Russia,314789
Kasur,31.1167,74.45,Pakistan,314617
Barddhamān,23.25,87.85,India,314265
Nantes,47.2181,-1.5528,France,314138
Yakou,33.2937,113.5203,China,313828
Binangonan,14.4514,121.1919,Philippines,313631
Temara,33.9234,-6.9076,Morocco,313510
Vologda,59.2167,39.9,Russia,313012
Fort Collins,40.5478,-105.0656,United States,312666
Zarzal,4.3942,-76.0703,Colombia,312599
Asheville,35.5704,-82.5536,United States,312507
Santa Clarita,34.4175,-118.4964,United States,312446
Port Elizabeth,-33.9581,25.6,South Africa,312392
Gorgān,36.83,54.48,Iran,312223
Tanza,14.3944,120.8531,Philippines,312116
Yakutsk,62.0272,129.7319,Russia,311760
Orël,52.9686,36.0694,Russia,311625
Ponta Grossa,-25.095,-50.1619,Brazil,311611
Catania,37.5027,15.0873,Italy,311584
Guarujá,-23.9936,-46.2564,Brazil,311230
Quy Nhơn,13.7696,109.2314,Vietnam,311000
Datang,22.9481,113.9276,China,310889
Sambalpur,21.4704,83.9701,India,310852
Purnea,25.78,87.47,India,310817
Yokkaichi,34.9667,136.6167,Japan,310263
Chalco,19.2647,-98.8975,Mexico,310130
Mannheim,49.4878,8.4661,Germany,309721
Shahrīār,35.6597,51.0592,Iran,309607
Shahr-e Qods,35.7214,51.1089,Iran,309605
St. Catharines,43.1833,-79.2333,Canada,309319
Kurgan,55.4408,65.3411,Russia,309285
Niagara Falls,43.06,-79.1067,Canada,308596
Safi,32.2833,-9.2333,Morocco,308508
Karlsruhe,49.0167,8.4,Germany,308436
St. Paul,44.9477,-93.104,United States,308096
Nakuru,-0.2833,36.0667,Kenya,307990
Sariwŏn,38.5039,125.7589,North Korea,307764
Puerto Princesa,9.75,118.75,Philippines,307079
Hisar,29.1489,75.7367,India,307024
Vladikavkaz,43.04,44.6775,Russia,306978
Kasugai,35.2477,136.9724,Japan,306449
Fīrozābād,27.15,78.3949,India,306409
Ciudad Santa Catarina,25.6833,-100.45,Mexico,306322
Puerto La Cruz,10.2167,-64.6167,Venezuela,306261
Vaughan,43.8333,-79.5,Canada,306233
Matadi,-5.8167,13.4833,Congo (Kinshasa),306053
Ciudad Victoria,23.7333,-99.1333,Mexico,305155
Playa del Carmen,20.6275,-87.0811,Mexico,304942
Akita,39.7197,140.1025,Japan,302984
Kurume,33.3167,130.5167,Japan,302858
Antioch,37.9789,-121.7958,United States,302419
Taubaté,-23.0333,-45.55,Brazil,302331
Iksan,35.9439,126.9544,South Korea,302310
Vila Nova de Gaia,41.1333,-8.6167,Portugal,302295
Lakeland,28.0556,-81.9545,United States,302284
Awka,6.2,7.0667,Nigeria,301657
San Bernardo,-33.6,-70.7167,Chile,301313
San Juan del Río,20.3833,-99.9833,Mexico,301237
Armenia,4.5389,-75.6725,Colombia,301226
Qianzhou,28.3185,109.7318,China,301000
Popayán,2.4411,-76.6061,Colombia,300837
Paulista,-7.9408,-34.8728,Brazil,300466
Mardan,34.1958,72.0447,Pakistan,300424
Quzhou,28.9545,118.8763,China,300300
Newcastle,55.0077,-1.6578,United Kingdom,300196
Āwasa,7.05,38.4667,Ethiopia,300100
Oaxaca,17.0606,-96.7253,Mexico,300050
Porto-Novo,6.4833,2.6167,Benin,300000
Sucre,-19.0431,-65.2592,Bolivia,300000
Sóc Trăng,9.6,105.9719,Vietnam,300000
Coatepeque,14.7,-91.8667,Guatemala,300000
Mérida,8.5833,-71.1333,Venezuela,300000
Curepipe,-20.3162,57.5166,Mauritius,299975
Ar Raqqah,35.95,39.01,Syria,299824
Ōakashichō,34.6431,134.9975,Japan,299699
Podolsk,55.4311,37.5456,Russia,299660
Linhai,28.8523,121.1409,China,299500
Ciudad General Escobedo,25.7933,-100.1583,Mexico,299364
Praia Grande,-24.0058,-46.4028,Brazil,299261
Bahía Blanca,-38.7167,-62.2667,Argentina,299101
Jember,-8.1727,113.6873,Indonesia,298585
Al Mubarraz,25.4416,49.6642,Saudi Arabia,298562
Al Kharj,24.1556,47.312,Saudi Arabia,298428
Pekalongan,-6.8883,109.6753,Indonesia,298386
Petrópolis,-22.505,-43.1789,Brazil,298142
Murmansk,68.9667,33.0833,Russia,298096
Toshima,35.7333,139.7167,Japan,297954
İskenderun,36.5804,36.17,Turkey,297943
Pachuca,20.1,-98.75,Mexico,297848
Oyster Bay,40.7845,-73.5139,United States,297822
Valladolid,41.6528,-4.7236,Spain,297775
Central Coast,-33.3,151.2,Australia,297713
Białystok,53.1167,23.1667,Poland,297554
Yangsan,35.3386,129.0386,South Korea,297532
Tampico,22.2553,-97.8686,Mexico,297284
Valparaíso,-33.0458,-71.6197,Chile,296655
Limeira,-22.5647,-47.4017,Brazil,296440
Rāmpur,28.788,79.019,India,296418
Tagum,7.4478,125.8078,Philippines,296202
Comilla,23.45,91.2,Bangladesh,296010
Augsburg,48.3717,10.8983,Germany,295830
Silang,14.2306,120.975,Philippines,295644
Kocaeli,40.7656,29.9406,Turkey,294875
Chernihiv,51.4939,31.2947,Ukraine,294522
Vila Teixeira da Silva,-12.1958,15.8556,Angola,294494
Rangpur,25.75,89.2444,Bangladesh,294265
Vigo,42.2314,-8.7124,Spain,293837
Āīzawl,23.7333,92.7167,India,293416
Bāli,22.65,88.34,India,293373
Bradford,53.8,-1.75,United Kingdom,293277
Mabalacat,15.2167,120.5833,Philippines,293244
Ismailia,30.5833,32.2667,Egypt,293184
Thiès,14.7833,-16.9167,Senegal,293001
Pānīpat,29.3833,76.9667,India,292808
Santarém,-2.4428,-54.7078,Brazil,292520
Resistencia,-27.4514,-58.9867,Argentina,291720
Groznyy,43.3125,45.6986,Russia,291687
Mbeya,-8.9,33.45,Tanzania,291649
Kherson,46.6333,32.6,Ukraine,291428
Juliaca,-15.4908,-70.1269,Peru,291189
Bafoussam,5.4667,10.4167,Cameroon,290768
Braşov,45.65,25.6,Romania,290743
Trenton,40.2236,-74.7641,United States,290716
Atyraū,47.1167,51.8833,Kazakhstan,290700
Batna,35.55,6.1667,Algeria,290645
Morioka,39.6833,141.15,Japan,290553
Iaşi,47.1622,27.5889,Romania,290422
Tambov,52.7167,41.4333,Russia,290365
Montpellier,43.6119,3.8772,France,290053
Ipswich,52.0594,1.1556,United Kingdom,290000
Hulin,45.7671,132.9646,China,290000
Hong’an,47.21,123.61,China,289999
Adana,37,35.325,Turkey,289919
Karīmnagar,18.4333,79.15,India,289821
Santa Maria,14.8183,120.9563,Philippines,289820
Lincoln,40.809,-96.6788,United States,289490
Graz,47.0708,15.4386,Austria,289440
Bhuj,23.2504,69.81,India,289429
Pendik,40.8775,29.2514,Turkey,289380
Nottingham,52.9533,-1.15,United Kingdom,289301
Farg‘ona,40.3864,71.7864,Uzbekistan,288850
Kaunas,54.9,23.9333,Lithuania,288466
Sétif,36.19,5.41,Algeria,288461
Springfield,37.1943,-93.2916,United States,288090
San José,9.9333,-84.0833,Costa Rica,288054
Anchorage,61.1508,-149.1091,United States,288000
San Lorenzo,-25.3431,-57.5094,Paraguay,287977
Plano,33.0502,-96.7487,United States,287677
Ichalkaranji,16.7,74.47,India,287570
Punto Fijo,11.7167,-70.1833,Venezuela,287558
Irvine,33.6772,-117.7738,United States,287401
Camaçari,-12.6978,-38.3239,Brazil,286919
Meguro,35.6333,139.6833,Japan,286905
Ljubljana,46.05,14.5167,Slovenia,286745
Sincelejo,9.2994,-75.3958,Colombia,286716
Sekondi,4.9433,-1.704,Ghana,286248
Tacna,-18.0556,-70.2483,Peru,286240
Cascavel,-24.9558,-53.455,Brazil,286205
Korhogo,9.4578,-5.6294,Côte d'Ivoire,286071
Hospet,15.2667,76.4,India,286007
San Cristóbal,7.7682,-72.2322,Venezuela,285872
Bhatinda,30.2133,74.9519,India,285813
Kunp’o,37.3675,126.9469,South Korea,285721
Bolton,53.578,-2.429,United Kingdom,285372
Davenport,41.5563,-90.6052,United States,285362
San Pablo,14.07,121.325,Philippines,285348
Suzano,-23.5428,-46.3108,Brazil,285280
Az Zaqāzīq,30.5833,31.5167,Egypt,285097
Ostrava,49.8356,18.2925,Czechia,284982
Strasbourg,48.5833,7.7458,France,284677
Barinas,8.6226,-70.2075,Venezuela,284289
Fukushima,37.7608,140.4733,Japan,284282
Coro,11.395,-69.6816,Venezuela,284266
Bago,17.3433,96.4981,Myanmar,284179
Delmas,18.55,-72.3,Haiti,284079
Fuquan,26.7039,107.5087,China,283904
Constanţa,44.1733,28.6383,Romania,283872
Ibaraki,34.8164,135.5686,Japan,283835
Sannai,24.16,80.83,India,283004
Huozhou,36.5726,111.7176,China,282905
Rockford,42.2597,-89.0641,United States,282762
Temuco,-38.7399,-72.5901,Chile,282415
Ica,-14.0667,-75.7333,Peru,282407
Tongchuanshi,35.08,109.03,China,282258
Newark,40.7245,-74.1725,United States,282011
Osh,40.5333,72.7833,Kyrgyzstan,281900
Jining,41.03,113.08,China,281716
Chuncheon,37.8747,127.7342,South Korea,281596
Haifa,32.8,34.9833,Israel,281087
Malārd,35.6658,50.9767,Iran,281027
South Bend,41.6767,-86.2696,United States,280498
Sterlitamak,53.6333,55.95,Russia,280233
Bukhara,39.7747,64.4286,Uzbekistan,280187
Shreveport,32.4656,-93.7956,United States,280062
Sumbe,-11.2052,13.8417,Angola,279968
Round Lake Beach,42.379,-88.0811,United States,279381
Lucena,13.9333,121.6167,Philippines,278924
Zhuji,29.7169,120.2314,China,278900
Long Xuyên,10.3686,105.4234,Vietnam,278658
Wiesbaden,50.0825,8.24,Germany,278609
Petrozavodsk,61.7833,34.35,Russia,278551
Gyeongsan,35.8167,128.7333,South Korea,278500
Bārāsat,22.72,88.48,India,278435
Governador Valadares,-18.8508,-41.9489,Brazil,278363
Pematangsiantar,2.96,99.06,Indonesia,278055
Shaowu,27.3417,117.4869,China,278000
Nizhnevartovsk,60.9389,76.595,Russia,277668
Kostroma,57.7667,40.9333,Russia,277648
Việt Trì,21.3136,105.3947,Vietnam,277539
Sunderland,54.906,-1.381,United Kingdom,277417
Dire Dawa,9.5833,41.8667,Ethiopia,277000
Itagüí,6.1726,-75.6096,Colombia,276744
Owo,7.1664,5.58,Nigeria,276574
Katowice,50.25,19,Poland,276499
Cherkasy,49.4444,32.0597,Ukraine,276360
Savannah,32.0281,-81.1784,United States,276295
Gatineau,45.4833,-75.65,Canada,276245
Windsor,42.2833,-83,Canada,276165
Posadas,-27.3667,-55.8969,Argentina,275988
Tegal,-6.8667,109.1333,Indonesia,275789
Myrtle Beach,33.7096,-78.8843,United States,275579
Sarajevo,43.8563,18.4132,Bosnia And Herzegovina,275524
Kunsan,35.9786,126.7114,South Korea,275155
Mbandaka,0.0486,18.2603,Congo (Kinshasa),274996
Qarshi,38.8667,65.8,Uzbekistan,274891
Chula Vista,32.6281,-117.0145,United States,274492
Linxia Chengguanzhen,35.6,103.2167,China,274466
Nassau,25.0667,-77.3333,The Bahamas,274400
Khmelnytskyi,49.42,27,Ukraine,274176
Ratlām,23.3167,75.0667,India,273892
Crato,-7.4639,-63.04,Brazil,273883
Yeosu,34.7607,127.6622,South Korea,273761
Eugene,44.0563,-123.1173,United States,273439
San Mateo,14.6969,121.1219,Philippines,273306
Tsu,34.7186,136.5056,Japan,273267
Güngören,41.035,28.8575,Turkey,272950
Sfax,34.74,10.76,Tunisia,272801
Los Alcarrizos,18.5167,-70.0167,Dominican Republic,272776
Palmas,-10.2128,-48.3603,Brazil,272726
Majene,-3.5336,118.966,Indonesia,272377
Sorong,-0.8667,131.25,Indonesia,272349
Taboão da Serra,-23.6019,-46.7528,Brazil,272177
Oral,51.2225,51.3725,Kazakhstan,271900
Gabela,-10.85,14.3667,Angola,271843
Dayr az Zawr,35.3333,40.15,Syria,271800
Sartā,36.5504,53.1,Iran,271467
Southampton,50.9025,-1.4042,United Kingdom,271173
Santo Domingo de los Colorados,-0.2542,-79.1719,Ecuador,270875
Sumida,35.7,139.8167,Japan,270823
Novorossiysk,44.7167,37.7667,Russia,270774
Santa Ana,13.9833,-89.5333,El Salvador,270413
Gombe,10.2904,11.17,Nigeria,270366
Bijiao,22.9311,113.2018,China,270310
Espoo,60.21,24.66,Finland,269802
Bamenda,5.9333,10.1667,Cameroon,269530
Craiova,44.3333,23.8167,Romania,269506
Canton,40.8075,-81.3677,United States,269418
Malmö,55.5833,13.0333,Sweden,269349
Handwāra,34.4,74.28,India,269311
Binjai,3.6,98.4853,Indonesia,269053
Gijón,43.5333,-5.7,Spain,268896
Drug,21.19,81.28,India,268806
Mito,36.3667,140.4667,Japan,268750
Brāhmanbāria,23.9667,91.1,Bangladesh,268279
Thái Bình,20.4461,106.3422,Vietnam,268167
Ichihara,35.4981,140.1156,Japan,268038
Plymouth,50.3714,-4.1422,United Kingdom,267918
Aswān,24.0889,32.8997,Egypt,267913
Lubbock,33.5659,-101.8878,United States,267648
Yanbu‘,24.0943,38.0493,Saudi Arabia,267590
Tshikapa,-6.4167,20.8,Congo (Kinshasa),267462
Maradi,13.5,7.1,Niger,267249
Floridablanca,7.0697,-73.0978,Colombia,267170
Anantapur,14.6833,77.6,India,267161
Reading,40.34,-75.9267,United States,267155
Winter Haven,28.0118,-81.7017,United States,267069
Marabá,-5.3689,-49.1178,Brazil,266932
Salem,44.9231,-123.0246,United States,266804
Myeik,12.4394,98.6003,Myanmar,266720
Yoshkar-Ola,56.6328,47.8958,Russia,266675
Chernivtsi,48.2908,25.9344,Ukraine,266550
Sumaré,-22.8219,-47.2669,Brazil,265955
Djelfa,34.6667,3.25,Algeria,265833
Sumy,50.9068,34.7992,Ukraine,265758
Suncheon,34.9506,127.4875,South Korea,265390
St. Petersburg,27.7931,-82.6652,United States,265351
Nalchik,43.4833,43.6167,Russia,265162
Engels,51.4667,46.1167,Russia,264990
Imphāl,24.82,93.95,India,264986
Yao,34.6269,135.6008,Japan,264913
Nogales,31.1833,-111,Mexico,264782
Dezfūl,32.3878,48.4033,Iran,264709
Oruro,-17.9667,-67.1167,Bolivia,264683
Zhytomyr,50.2544,28.6578,Ukraine,264452
Lafayette,30.2084,-92.0323,United States,264357
São José dos Pinhais,-25.535,-49.2058,Brazil,264210
Kyŏngju,35.85,129.2167,South Korea,264091
Dumai,1.6667,101.45,Indonesia,264084
Nagaoka,37.4333,138.8333,Japan,263955
Tāluqān,36.7167,69.5167,Afghanistan,263800
Wenling,28.3797,121.3718,China,263700
Jalālābād,34.4303,70.4528,Afghanistan,263312
Nawabshah,26.2442,68.41,Pakistan,263102
Fuchū,35.6689,139.4778,Japan,263093
Talisay,10.25,123.8333,Philippines,263048
Volta Redonda,-22.5231,-44.1042,Brazil,262970
Kafr ad Dawwār,31.1339,30.1297,Egypt,262748
Laredo,27.5629,-99.4875,United States,262491
Barueri,-23.5111,-46.8764,Brazil,262275
Gent,51.0536,3.7253,Belgium,262219
Jersey City,40.7161,-74.0682,United States,262075
Wollongong,-34.4331,150.8831,Australia,261896
Concord,35.3933,-80.6366,United States,261801
Columbus,32.51,-84.8771,United States,261445
Venice,45.4397,12.3319,Italy,261321
Malolos,14.8433,120.8114,Philippines,261189
Chandler,33.2826,-111.8516,United States,261165
Heroica Nogales,31.3186,-110.9458,Mexico,261137
Ciudad Benito Juárez,25.65,-100.0833,Mexico,260683
Kakogawachō-honmachi,34.7569,134.8414,Japan,260595
Olongapo,14.8333,120.2833,Philippines,260317
Fukui,36.0641,136.2196,Japan,260263
Quảng Ngãi,15.1206,108.7922,Vietnam,260252
Kingston upon Hull,53.7444,-0.3325,United Kingdom,260200
Mossoró,-5.1878,-37.3439,Brazil,259815
Kunduz,36.728,68.8725,Afghanistan,259809
Mönchengladbach,51.2,6.4333,Germany,259665
Gelsenkirchen,51.5167,7.1,Germany,259105
Mişrātah,32.3778,15.0901,Libya,259056
McKinney,33.2015,-96.6669,United States,258277
Huayin,34.5664,110.0866,China,258113
Minato,35.6581,139.7514,Japan,258105
Scottsdale,33.6872,-111.8651,United States,258069
Killeen,31.0754,-97.7296,United States,258009
Wutong,30.6326,120.5474,China,257800
Hiratsuka,35.3231,139.3422,Japan,257662
Tallahassee,30.4551,-84.2526,United States,257601
Etāwah,26.7855,79.015,India,257448
Annaba,36.9,7.7667,Algeria,257359
Verona,45.4386,10.9928,Italy,257275
Antsirabe,-19.8667,47.0333,Madagascar,257163
Bergen,60.3925,5.3233,Norway,257087
Bordeaux,44.84,-0.58,France,257068
Ondo,7.0904,4.84,Nigeria,257005
Horlivka,48.3336,38.0925,Ukraine,256714
Peoria,40.752,-89.6153,United States,256286
Bloemfontein,-29.1,26.2167,South Africa,256185
Foz do Iguaçu,-25.54,-54.5875,Brazil,256088
Ấp Đa Lợi,11.9304,108.42,Vietnam,256019
Damaturu,11.7803,11.9786,Nigeria,255895
Nonthaburi,13.8667,100.5167,Thailand,255671
Gravataí,-29.9433,-50.9939,Brazil,255660
Wilmington,34.21,-77.8866,United States,255616
Derby,52.9217,-1.4769,United Kingdom,255394
Westminster,51.4947,-0.1353,United Kingdom,255324
Rāichūr,16.2,77.3667,India,255240
Daloa,6.89,-6.45,Côte d'Ivoire,255168
Kuala Terengganu,5.3303,103.1408,Malaysia,255109
San Pedro Carchá,15.4768,-90.312,Guatemala,255006
Moçâmedes,-15.1953,12.1508,Angola,255000
Turmero,10.2283,-67.4753,Venezuela,254880
Montgomery,32.3473,-86.2666,United States,254634
Tokushima,34.0667,134.55,Japan,254510
Marilao,14.7581,120.9481,Philippines,254453
Gilbert,33.3101,-111.7463,United States,254114
Fort-de-France,14.6104,-61.08,Martinique,253995
Kütahya,39.4242,29.9833,Turkey,253335
Vitoria-Gasteiz,42.85,-2.6833,Spain,253093
Shinozaki,33.95,130.9333,Japan,252844
El Fasher,13.63,25.35,Sudan,252609
Glendale,33.5791,-112.2311,United States,252381
Bharatpur,27.2172,77.49,India,252342
Santiago del Estero,-27.7844,-64.2669,Argentina,252192
Begusarai,25.42,86.13,India,252008
Kediri,-7.8111,112.0047,Indonesia,252000
North Las Vegas,36.288,-115.0901,United States,251974
Kanggye,40.9667,126.6,North Korea,251971
Hakodate,41.7686,140.7289,Japan,251942
Chiayi,23.48,120.4497,Taiwan,251938
Tacloban,11.2444,125.0039,Philippines,251881
Sōka,35.8256,139.8056,Japan,251390
Higüey,18.6181,-68.7111,Dominican Republic,251243
Los Teques,10.3411,-67.0406,Venezuela,251200
Jinshi,29.6334,111.8746,China,251064
Wolverhampton,52.5833,-2.1333,United Kingdom,250970
Bata,1.865,9.77,Equatorial Guinea,250770
Rạch Giá,10.0125,105.0808,Vietnam,250660
Sonīpat,28.9958,77.0114,India,250521
Iwo,7.63,4.18,Nigeria,250443
Taganrog,47.2333,38.9,Russia,250287
Bābol,36.55,52.6833,Iran,250217
La Paz,24.1422,-110.3108,Mexico,250141
Arua,3.03,30.91,Uganda,250000
Al Bayḑā’,32.7628,21.755,Libya,250000
Kurmuk,10.5563,34.2848,Sudan,250000
New Delhi,28.6139,77.209,India,249998
Juazeiro do Norte,-7.2128,-39.315,Brazil,249939
Las Condes,-33.4167,-70.5833,Chile,249893
Goma,-1.6794,29.2336,Congo (Kinshasa),249862
Rishon LeẔiyyon,31.9711,34.7894,Israel,249860
Komsomol’sk-na-Amure,50.55,137,Russia,249810
Várzea Grande,-15.65,-56.14,Brazil,249752
Manzhouli,49.5881,117.4525,China,249472
Palangkaraya,-2.21,113.92,Indonesia,249434
Galaţi,45.4233,28.0425,Romania,249432
Ḩafr al Bāţin,28.4337,45.9601,Saudi Arabia,249194
Stoke-on-Trent,53,-2.1833,United Kingdom,249008
Aachen,50.7762,6.0838,Germany,248960
Braunschweig,52.2692,10.5211,Germany,248561
Portsmouth,50.8058,-1.0872,United Kingdom,248440
Sibu,2.3,111.8167,Malaysia,247995
Paraná,-31.7444,-60.5175,Argentina,247863
Sahiwal,30.6706,73.1064,Pakistan,247706
Gdynia,54.5189,18.5319,Poland,247672
Navotas,14.6667,120.9417,Philippines,247543
Imperatriz,-5.5258,-47.4758,Brazil,247505
Santa Clara,22.4067,-79.9531,Cuba,247436
Yamagata,38.25,140.3333,Japan,247234
Tsukuba-kenkyūgakuen-toshi,36.0333,140.0667,Japan,246647
Kiel,54.3233,10.1394,Germany,246601
Rivne,50.6197,26.2514,Ukraine,246574
Oruro,-17.9799,-67.13,Bolivia,246501
Saskatoon,52.1333,-106.6833,Canada,246376
Beichengqu,40.4348,113.1565,China,245608
Abertawe,51.6167,-3.95,United Kingdom,245508
A Coruña,43.3667,-8.3833,Spain,245468
Syktyvkar,61.6667,50.8167,Russia,245313
Barnsley,53.5547,-1.4791,United Kingdom,245199
Chesapeake,36.6778,-76.3024,United States,244835
Khimki,55.8892,37.445,Russia,244668
Thủ Dầu Một,11.0042,106.6583,Vietnam,244277
Merlo,-34.6653,-58.7275,Argentina,244168
Damanhūr,31.05,30.4667,Egypt,244043
Jessore,23.1704,89.2,Bangladesh,243987
Fuji,35.1614,138.6764,Japan,243739
Sabzevār,36.2167,57.6667,Iran,243700
Santa Maria,-29.6839,-53.8069,Brazil,243611
Tanga,-5.0667,39.1,Tanzania,243580
Chemnitz,50.8333,12.9167,Germany,243487
Bahir Dar,11.585,37.39,Ethiopia,243300
Myitkyina,25.3867,97.3936,Myanmar,243031
Rāmgundam,18.8,79.45,India,242979
Hāpur,28.7437,77.7628,India,242920
Barnstable,41.6722,-70.3599,United States,242847
Tuy Hòa,13.0869,109.3086,Vietnam,242840
Norfolk,36.8945,-76.259,United States,242742
Sasebo,33.18,129.7156,Japan,242664
Sapele,5.8261,5.6536,Nigeria,242652
Birāṭnagar,26.4833,87.2833,Nepal,242548
Chigasaki,35.3339,139.4047,Japan,242347
Zhangping,25.2938,117.4148,China,242000
Haeju,38.0333,125.7167,North Korea,241599
Diaobingshancun,42.4391,123.5426,China,241431
São Carlos,-22.0178,-47.8908,Brazil,241389
Fremont,37.5265,-121.9852,United States,241110
Baruta,10.4335,-66.8754,Venezuela,240755
Kennewick,46.1978,-119.1732,United States,240735
Tarapoto,-6.4833,-76.3667,Peru,240453
Shanhu,29.5908,120.8176,China,240400
Atushi,39.7114,76.1753,China,240368
Chōfugaoka,35.6506,139.5408,Japan,240359
Anju,39.6167,125.6667,North Korea,240117
Garland,32.91,-96.6305,United States,239928
Irving,32.8584,-96.9702,United States,239798
Longueuil,45.5333,-73.5167,Canada,239700
Mokpo,34.7936,126.3886,South Korea,239524
Ipatinga,-19.4678,-42.5369,Brazil,239468
Viamão,-30.0808,-51.0228,Brazil,239384
Yato,35.4693,139.4616,Japan,239146
Matsumoto,36.2381,137.9719,Japan,239115
Chimoio,-19.1167,33.45,Mozambique,238976
Novo Hamburgo,-29.6778,-51.1308,Brazil,238940
Košice,48.7167,21.25,Slovakia,238593
Lishui,28.45,119.9167,China,238400
González Catán,-34.7708,-58.6464,Argentina,238067
Wuyishan,27.7562,118.0267,China,238000
Halle,51.4828,11.9697,Germany,237865
Shenmu,38.827,110.499,China,237846
As Sīb,23.6802,58.1825,Oman,237816
Porto,41.1495,-8.6108,Portugal,237591
Aarhus,56.1572,10.2107,Denmark,237551
Āmol,36.4669,52.3569,Iran,237528
Visalia,36.3276,-119.3269,United States,237386
Al Jubayl,27.0046,49.646,Saudi Arabia,237274
Nizhnekamsk,55.6333,51.8167,Russia,237250
Monclova,26.9103,-101.4222,Mexico,237169
Taiping,4.85,100.7333,Malaysia,237095
Pathein,16.7667,94.7333,Myanmar,237089
Atlantic City,39.3797,-74.4527,United States,237054
Chishui,28.5902,105.6946,China,237052
Mirpur Khas,25.5269,69.0111,Pakistan,236961
Ivano-Frankivsk,48.9228,24.7106,Ukraine,236602
P’yŏng-dong,39.25,125.85,North Korea,236583
Centurion,-25.8603,28.1894,South Africa,236580
Pākdasht,35.4817,51.6803,Iran,236319
Petaẖ Tiqwa,32.0833,34.8833,Israel,236169
Abhā,18.2167,42.5,Saudi Arabia,236157
Springs,-26.2547,28.4428,South Africa,236083
Al Minyā,28.0833,30.75,Egypt,236043
Garoua,9.3,13.4,Cameroon,235996
Bunkyō-ku,35.7167,139.75,Japan,235981
Magdeburg,52.1317,11.6392,Germany,235775
Zinder,13.8,8.9833,Niger,235605
Bole,44.898,82.0726,China,235585
Shakhty,47.7,40.2333,Russia,235492
Ganda,-13.0167,14.6333,Angola,235486
Uluberiya,22.47,88.11,India,235345
Banda Aceh,5.55,95.3175,Indonesia,235305
Najafābād,32.6342,51.3667,Iran,235281
Shibuya-ku,35.6583,139.7014,Japan,235193
Bayamo,20.3817,-76.6428,Cuba,235107
Paradise,36.0807,-115.1369,United States,235087
Kamianske,48.5076,34.6132,Ukraine,235066
Limassol,34.675,33.0443,Cyprus,235056
Borūjerd,33.8972,48.7514,Iran,234997
Ibb,13.9759,44.1709,Yemen,234837
Porbandar,21.6425,69.6047,India,234684
Macaé,-22.3708,-41.7869,Brazil,234628
Miri,4.4028,113.9933,Malaysia,234541
Singaraja,-8.1167,115.0833,Indonesia,234468
Messina,38.1936,15.5542,Italy,234293
Elche,38.2669,-0.6983,Spain,234205
Nashua,42.7491,-71.491,United States,233917
Avcılar,40.9792,28.7214,Turkey,233749
Bo,7.9564,-11.74,Sierra Leone,233684
Arlington,38.8786,-77.1011,United States,233464
Hialeah,25.8696,-80.3046,United States,233339
York,39.9651,-76.7315,United States,233184
Lille,50.6278,3.0583,France,233098
Arapiraca,-9.75,-36.65,Brazil,233047
San Cristóbal,18.4167,-70.1333,Dominican Republic,232769
Burnaby,49.2667,-122.9667,Canada,232755
Okara,30.81,73.4597,Pakistan,232386
Saga,33.2667,130.3,Japan,232359
Saidpur,25.8004,89,Bangladesh,232209
Marília,-22.2139,-49.9458,Brazil,232006
Jiayuguan,39.8112,98.2862,China,231853
Dzerzhinsk,56.2333,43.45,Russia,231797
Granada,37.1781,-3.6008,Spain,231775
Eindhoven,51.4344,5.4842,Netherlands,231642
Gaborone,-24.6569,25.9086,Botswana,231626
Bratsk,56.152,101.633,Russia,231602
Rancagua,-34.1654,-70.7398,Chile,231370
Machala,-3.2667,-79.9667,Ecuador,231260
Neuquén,-38.9573,-68.0455,Argentina,231198
Qarchak,35.4394,51.5689,Iran,231075
Indaiatuba,-23.0903,-47.2181,Brazil,231033
Ormoc,11.0167,124.6167,Philippines,230998
Freiburg im Breisgau,47.995,7.85,Germany,230940
Fresnillo,23.175,-102.8675,Mexico,230865
Eloy Alfaro,-2.1733,-79.8311,Ecuador,230839
Quilmes,-34.7167,-58.2667,Argentina,230810
North Hempstead,40.7912,-73.6688,United States,230531
Evansville,37.9881,-87.5341,United States,230427
Orsk,51.229,58.4681,Russia,230414
Singkawang,0.9,108.9833,Indonesia,230376
Marka,1.7156,44.7703,Somalia,230100
Barishal,22.7,90.3667,Bangladesh,230000
Pāli,25.7725,73.3233,India,229956
Noginsk,64.4833,91.2333,Russia,229731
Cotia,-23.6039,-46.9189,Brazil,229548
Americana,-22.7389,-47.3308,Brazil,229322
Kasukabe,35.9753,139.7525,Japan,228975
Rondonópolis,-16.4708,-54.6358,Brazil,228857
Envigado,6.1719,-75.5803,Colombia,228848
Vizianagaram,18.1167,83.4167,India,228720
Cobán,15.4833,-90.3667,Guatemala,228664
Guantánamo,20.1383,-75.2061,Cuba,228436
Neya,34.7661,135.6281,Japan,227997
Kropyvnytskyi,48.5103,32.2667,Ukraine,227413
Puducherry,11.93,79.83,India,227411
Magé,-22.6528,-43.0408,Brazil,227322
Avondale,33.3858,-112.3236,United States,227289
Brownsville,25.998,-97.4565,United States,227239
Daşoguz,41.8167,59.9831,Turkmenistan,227184
Krefeld,51.3333,6.5667,Germany,226844
Ageoshimo,35.9775,139.5933,Japan,226616
Jacareí,-23.305,-45.9658,Brazil,226539
Araraquara,-21.7939,-48.1758,Brazil,226508
Angarsk,52.5667,103.9167,Russia,226374
Kolpino,59.73,30.65,Russia,225801
Mubi,10.2604,13.2606,Nigeria,225705
Meycauayan,14.7333,120.95,Philippines,225673
Varāmīn,35.2714,51.6511,Iran,225628
Padangsidempuan,1.3667,99.2667,Indonesia,225544
Hunchun,42.8679,130.3585,China,225454
Nyanza,-2.3496,29.74,Rwanda,225209
Nadiād,22.7,72.87,India,225132
Tampere,61.4981,23.76,Finland,225118
Toamasina,-18.1492,49.4023,Madagascar,225116
